,BreweryName,BreweryType,Latitude,Longitude,County,State
0,Siluria Brewing Company,planning,33.2442813,-86.8163773,Shelby,AL
1,Cheaha Brewing Co,brewpub,33.6601671,-85.8337740514949,Calhoun,AL
2,Avondale Brewing Co,micro,33.524521,-86.774322,Jefferson,AL
3,Trim Tab Brewing,micro,33.5128492349817,-86.7914000624146,,
4,Birmingham District Brewing,planning,33.5206824,-86.8024326,Jefferson,AL
5,Brewpub In Planning - Birmingham,planning,33.5206824,-86.8024326,,
6,Ghost Train Brewing Co,micro,33.5141593469388,-86.7940615102041,Jefferson,AL
7,Good People Brewing Co,micro,33.5075946077931,-86.8121799456595,Jefferson,AL
8,Cross-Eyed Owl Brewing Co.,micro,34.6041206530612,-86.9866330204082,,
9,Fairhope Brewing Co,micro,30.516291,-87.898282,Baldwin,AL
10,Bluewater Brewing Co,micro,34.8041295,-87.6597052887684,Lauderdale,AL
11,"Singin' River Brewing Company, LLC",micro,34.8016657,-87.668929940884,Lauderdale,AL
12,Back Forty Beer Co,micro,34.016888,-86.005006,Etowah,AL
13,Big Beach Brewing Company,micro,30.278051,-87.683039,,
14,Main Channel Brewing Company,micro,34.3387368412698,-86.3121603492064,,
15,Yellowhammer Brewery,micro,34.7277523,-86.5932014,,
16,Below the Radar Brewing Co,brewpub,34.7327236530612,-86.5858393061225,,
17,Chandler's Ford Brewing LLC,planning,34.729847,-86.5859011,,
18,InnerSpace Brewing Company,micro,34.7277523,-86.5932014,Madison,AL
19,Mad Malts Brewery & Tap Room,micro,34.746475,-86.585242,Madison,AL
20,Salty Nut Brewery,micro,34.7277523,-86.5932014,,
21,Straight to Ale,micro,34.7277523,-86.5932014,Madison,AL
22,Green Bus Brewing,brewpub,34.7301050335608,-86.5840513571761,Madison,AL
23,Tallulah Brewing Company,micro,33.830796,-87.278675,Walker,AL
24,Twisted Barley Brewing Company,micro,33.832359,-87.28338,,
25,Old Black Bear Brewing,micro,34.6932934545455,-86.7492240909091,,
26,Rocket Republic Brewing Company,micro,34.6728014,-86.7740173304273,Madison,AL
27,Brewery in Planning - Mobile,planning,30.6943566,-88.0430541,Mobile,AL
28,Haint Blue Brewing Company,contract,30.6847432069419,-88.051261838738,Mobile,AL
29,Old Majestic Brewing Company,planning,30.6943566,-88.0430541,,
30,Serda Brewing Company,micro,30.6879563,-88.0493871301972,Mobile,AL
31,Red Clay Brewing Company,micro,32.6493954206225,-85.3787541825702,,
32,Sand Mtn brewery,planning,34.5789747,-85.986644,Jackson,AL
33,5 Rivers Brewing LLC,planning,30.6749127,-87.9152724,Baldwin,AL
34,Ferus Artisan Ales,planning,33.6196266,-86.6084342,Jefferson,AL
35,Band of Brothers Brewing Company,micro,33.1984907123707,-87.5621551272424,Tuscaloosa,AL
36,Black Warrior Brewing Co.,micro,33.2106175454545,-87.565915,Tuscaloosa,AL
37,Druid City Brewing,micro,33.1999747350306,-87.5437361470987,,
38,King Street Brewing Co,micro,61.1384893547315,-149.879076042937,,
39,49th State Brewing Co - Anchorage,brewpub,61.2197366,-149.895819630259,Anchorage,AK
40,Anchorage Brewing Co,micro,61.1385311,-149.8893581,,
41,Broken Tooth Brewing Co,brewpub,61.2225517048454,-149.843763795249,Anchorage,AK
42,Faults Brewing,planning,61.2163129,-149.8948523,Anchorage,AK
43,Humpy's Great Alaskan Alehouse,contract,61.2165020023101,-149.893892836775,Anchorage,AK
44,Midnight Sun Brewing Co,micro,61.1471249,-149.8445465,Anchorage,AK
45,Resolution Brewing Company,brewpub,61.2199788932932,-149.823091047009,Anchorage,AK
46,"Resolution Brewing Compnay, LLC",micro,61.2199788932932,-149.823091047009,,
47,Turnagain Brewing,planning,61.2163129,-149.8948523,,
48,"Cooper Landing Brewing Company, LLC.",micro,60.4952185,-149.847849500835,Kenai Peninsula,AK
49,HooDoo Brewing Co,micro,64.8485550111944,-147.759819939718,Fairbanks North Star,AK
50,Midnite Mine Brewpub,planning,64.837845,-147.716675,,
51,Silver Gulch Brewing Co,micro,64.9570858831622,-147.62197608655,Fairbanks North Star,AK
52,Girdwood Brewing Company,micro,60.9578421,-149.1540907,,
53,Haines Brewing Co,micro,59.2357624,-135.4551927,,
54,Icy Strait Brewery,micro,58.110318744898,-135.446488673469,,
55,Barnaby Brewing Company,micro,58.3017758843016,-134.407726539973,Juneau,AK
56,Alaskan Brewing Co.,regional,58.3568123068526,-134.491876286925,Juneau,AK
57,Devil's Club Brewing,brewpub,58.301309,-134.406956,Juneau,AK
58,"Inside Passage Brewing Company, LLC",planning,55.3430696,-131.6466819,Ketchikan Gateway,AK
59,Baleen Brewing Co.,planning,55.3430696,-131.6466819,,
60,"Kodiak Island Brewing Co, LLC",micro,57.7900825595856,-152.40715497121,,
61,Klondike Brewing Company,brewpub,59.4538574343434,-135.318872070707,Skagway,AK
62,Kenai River Brewing Co,brewpub,60.4850753,-151.0561141,Kenai Peninsula,AK
63,St Elias Brewing Co,micro,60.4914867311424,-151.047229286693,,
64,Growler Bay Brewing Co,planning,61.1299396,-146.3493638,Chugach,AK
65,Bearpaw River Brewing Co,micro,61.5752695,-149.4127103,Matanuska-Susitna,AK
66,Last Frontier Brewing Company,brewpub,61.5814829990806,-149.439553425176,,
67,Old Bisbee Brewing,micro,31.4427216923077,-109.913843769231,,
68,BJs Restaurant & Brewery - Chandler,brewpub,33.3053455,-111.911126,Maricopa,AZ
69,SanTan Brewing Co,regional,33.3032436,-111.8423459,Maricopa,AZ
70,Roadrunner Abbey Brewing,planning,33.3067132,-111.8408489,Maricopa,AZ
71,SanTan Brewing Co - Uptown Chandler,micro,33.3352048,-111.8384052,,
72,The Perch Pub & Brewery,brewpub,33.3000878,-111.8424808,,
73,Edge Of The World Brewery,micro,36.9941047,-112.9740725,Mohave,AZ
74,Flagstaff Brewing Co,brewpub,35.2109064,-111.523296,,
75,Lumberyard Brewing Co Taproom and Grille,micro,35.1964377,-111.648578,Coconino,AZ
76,Mother Road Brewing Co,micro,35.196928,-111.6524478,Coconino,AZ
77,Desert Monks Brewing Co.,planning,33.3528259,-111.7890239,Maricopa,AZ
78,Flying Basset Brewing,brewpub,33.3209814810127,-111.805438886076,,
79,O.H.S.O. Brewery - Gilbert,brewpub,33.3508552,-111.7896117,Maricopa,AZ
80,Gordon Biersch Brewery Restaurant - Glendale,brewpub,33.5050851,-112.2638679,,
81,Saddle Mountain Brewing Company,brewpub,33.4572737,-112.3970112,Maricopa,AZ
82,Black Bridge Brewery,micro,35.1895876968531,-114.051737005448,,
83,Rickety Cricket Brewing,brewpub,35.19028906381,-114.061498100513,Mohave,AZ
84,Mudshark Brewing Co,micro,34.4689736300844,-114.342433477881,,
85,Barley Brothers Brewery,brewpub,34.4770677,-114.3206399,Mohave,AZ
86,College Street Brewhouse and Pub,micro,34.5075404422947,-114.347596097639,,
87,Pinetop Brewing Company,brewpub,34.1430123076923,-109.956176923077,Navajo,AZ
88,Wicked Monkey Brewing Co,planning,32.4446988,-111.2157091,,
89,12 West Brewing Company - Production Facility,micro,33.436188,-111.586066176293,,
90,Desert Eagle Brewing Company,micro,33.4148261,-111.8568311,Maricopa,AZ
91,Oro Brewing Company,micro,33.4151998242077,-111.837050306223,,
92,Richter Aleworks,micro,33.6687744976834,-112.238054093359,Maricopa,AZ
93,Wren House Brewing Company,micro,33.516633,-112.0301125,,
94,Deep Roots Brewing,planning,33.4485866,-112.0773456,Maricopa,AZ
95,Helio Basin Brewing Company,brewpub,33.4804619,-112.0028173,,
96,Helton Brewing Company,brewpub,33.4946865,-111.9805956,,
97,"Mother Bunch Brewing, Inc.",micro,33.4572674,-112.0649987,Maricopa,AZ
98,North Mountain Brewing Co,brewpub,33.5678786503786,-112.066091857742,Maricopa,AZ
99,O.H.S.O. Eatery + NanoBrewery,brewpub,33.49501715,-111.975830991319,Maricopa,AZ
100,SanTan Brewing Co,planning,33.4485866,-112.0773456,Maricopa,AZ
101,Science,planning,33.4485866,-112.0773456,Maricopa,AZ
102,Sonoran Brewing,contract,33.4475332,-111.9805737,,
103,State 48 Brewery,planning,33.4485866,-112.0773456,,
104,Sun Up Brewing Co.,brewpub,33.50950925,-112.068777346556,Maricopa,AZ
105,Sun Up Brewing Company 330,planning,33.4485866,-112.0773456,Maricopa,AZ
106,The Phoenix Ale Brewery,micro,33.4457883,-111.9642922,Maricopa,AZ
107,Walter Station Brewery,planning,33.4485866,-112.0773456,,
108,Coppertop Alehouse and Still Works,brewpub,34.5385194418589,-112.470303973229,Yavapai,AZ
109,Granite Mountain Brewing,micro,34.54238481217,-112.468601799769,Yavapai,AZ
110,LazyG Brewhouse,planning,34.5402813,-112.469518,Yavapai,AZ
111,Prescott Brewing Co - Production Facility,micro,34.649529,-112.4132617,,
112,Old Ellsworth Brewing Company,brewpub,33.2451128463629,-111.634389355296,Maricopa,AZ
113,Bad Water Brewing,contract,33.4972615652174,-111.924474347826,Maricopa,AZ
114,CRAFT 64,contract,33.4931529975966,-111.931927098678,,
115,Goldwater Brewing Co,micro,33.658427,-111.9254955,Maricopa,AZ
116,McFate Brewing Company,brewpub,33.658427,-111.9254955,Maricopa,AZ
117,State 48 Barrel and Lager House,planning,33.5091215,-111.8992365,Maricopa,AZ
118,Two Brothers Scottsdale Tap House and Brewery,brewpub,33.658427,-111.9254955,Maricopa,AZ
119,Whirling Skirmish Brewing Company,planning,33.5091215,-111.8992365,Maricopa,AZ
120,Loco Patron Mexican Brewery,brewpub,33.6216475,-111.897770741602,Maricopa,AZ
121,Scottsdale Beer Company,brewpub,33.5828595,-111.8951852,,
122,Sedona Beer Company,planning,34.8657757,-111.7929891,,
123,Brewery in Planning - Sierra Vista,planning,31.5545401,-110.3036929,,
124,State 48 Brewery,brewpub,33.63822125,-112.357813820157,Maricopa,AZ
125,Four Peaks Brewery & Taproom,large,33.402871377966,-111.944654908083,,
126,Sleepy Dog Brewing Co,micro,33.422606,-111.9041833,Maricopa,AZ
127,The Shop Beer Co.,micro,33.4291738366844,-111.951429159213,,
128,Tombstone Brewing Company,micro,31.7136026845638,-110.072281805369,Cochise,AZ
129,1912 Brewing,micro,32.2467372722906,-110.992750525872,,
130,BlackRock Brewers,micro,32.201608314954,-110.821778571134,Pima,AZ
131,Dragoon Brewing Co,micro,32.2504946147872,-111.005452051979,Pima,AZ
132,Barrio Brewing Co,micro,32.214613,-110.959665,,
133,Corbett Brewing Company,micro,32.2263408526684,-110.966790000908,,
134,Crooked Tooth Brewing Co.,micro,32.2276230220053,-110.967733199346,,
135,Dillinger Brewing Company,micro,32.2997436,-110.9785303,,
136,Green Feet Brewing,micro,32.1843632,-110.9232648,Pima,AZ
137,Public Brewhouse,micro,32.2240171836735,-110.964884816327,Pima,AZ
138,Pueblo Vida Brewing Co,micro,32.2214274,-110.9451764,Pima,AZ
139,Sentinel Peak Brewing Company,brewpub,32.2505857,-110.8552229,,
140,Borderlands Brewing Co,micro,32.2233468061147,-110.967630483658,Pima,AZ
141,The Address Brewing / 1702 Beer & Pizza,micro,32.23567665,-110.946585309028,,
142,Grand Canyon Brewing Company,micro,35.2500282,-112.1892168,Coconino,AZ
143,"Brewery in Planning - Yuma, AZ",planning,32.7253249,-114.624397,,
144,Prison Hill Brewing Co,brewpub,32.7229185,-114.6181995,Yuma,AZ
145,Slate Rock Brewing Company,micro,34.2640692796861,-93.4611304275487,Clark,AR
146,Bike Rack Brewing Co - 8th Street Market,micro,36.364069,-94.200584,Benton,AR
147,Gotahold Brewing Company,planning,36.4000796,-93.7392419,Carroll,AR
148,Apple Blossom Brewing Co,brewpub,36.1297079,-94.1372796,,
149,Columbus House Brewery,micro,36.0771652,-94.1688685443672,Washington,AR
150,Crisis Brewing LLC,micro,36.0595970427386,-94.1608753945713,Washington,AR
151,Fayetteville Brewing Company,planning,36.0625843,-94.1574328,Washington,AR
152,Fossil Cove Brewing Co,brewpub,36.0879053,-94.1647828743272,,
153,Hog Haus Brewing Co,brewpub,36.0666309,-94.1652437133366,,
154,JJs Brewing Company,brewpub,36.11719055,-94.1571434160088,,
155,Puritan Brew Company,contract,36.066188,-94.1620702,Washington,AR
156,Tiny Tim's Pizza /West Mountain Brewery,brewpub,36.0617393,-94.1602601,Washington,AR
157,Fort Smith Brewing Company,micro,35.310777,-94.298483,,
158,SQZBX Brewery,brewpub,34.5075190336429,-93.0557935951065,Garland,AR
159,Lost Forty Brewing,micro,34.742845,-92.260019,Pulaski,AR
160,Rebel Kettle Brewing Company,brewpub,34.7421112653061,-92.2620919591837,Pulaski,AR
161,Blue Canoe Brewing Co,micro,34.73235495962,-92.2536680720849,Pulaski,AR
162,Buffalo Brewing Company At The Water Buffalo,micro,34.752616,-92.366648,Pulaski,AR
163,Damgoode Pies,brewpub,34.7475388,-92.2653101,,
164,Lost 40 brewing,micro,34.7426855790517,-92.25901,,
165,Refined Ale Brewery,micro,34.7308344651163,-92.3184696976744,Pulaski,AR
166,Stone's Throw Brewing,brewpub,34.7397885,-92.2680663333333,Pulaski,AR
167,Vino's Pizza Pub Brewery,brewpub,34.7434391973995,-92.2814021238178,Pulaski,AR
168,Whistleing Springs Brewing Company / Dark Hills Brewery,planning,36.2553543,-94.1307587,Benton,AR
169,Rapp's Barren Brewing Company,micro,36.3326432,-92.3599724,Baxter,AR
170,Norfork Brewing Company,micro,36.2245472,-92.2711893,,
171,Diamond Bear Brewing Co,micro,34.7594277548278,-92.2726892120821,,
172,Brick Oven Pizza Co / Brick & Forge Brewing,brewpub,36.0316358142169,-90.5204797204622,Greene,AR
173,Bentonville Brewing Co,micro,36.3168272,-94.1178372,Benton,AR
174,Hawk Moth Brewing Co,planning,36.3320197,-94.1185366,Benton,AR
175,Ozark Beer Company,micro,36.3335034,-94.1147203,,
176,New Province Brewing Company,micro,36.3553520033412,-94.1327921626482,Benton,AR
177,LAB Brewing Co / Twisted Oak Tavern,brewpub,34.1451193082735,-118.779913319513,Los Angeles,CA
178,Ladyface Ale Companie,brewpub,34.1440421589215,-118.766153587872,Los Angeles,CA
179,Alameda Island Brewing Company,micro,37.7683363123474,-122.239450559516,Alameda,CA
180,Almanac Beer Company,micro,37.7834497667258,-122.306283180899,Alameda,CA
181,Faction Brewing Co,micro,37.7866722,-122.3097077,,
182,Junction Brewery & Grill,brewpub,38.1658134,-122.261689,Napa,CA
183,Back Street Brewery & Tasting Room,micro,33.7998367777778,-117.896089444444,Orange,CA
184,Anaheim Brewery,micro,33.8328226,-117.9125249,,
185,Ballast Point Brewing Company,planning,33.8347516,-117.911732,,
186,Bottle Logic Brewing,micro,33.8495705,-117.859722637846,Orange,CA
187,Brewheim Brewing Company,planning,33.8347516,-117.911732,,
188,Bruery Terreux,micro,33.8579369161764,-117.841875871588,,
189,H2OPS LLC,planning,33.8347516,-117.911732,Orange,CA
190,Legends Craft Brewery,micro,33.8162808526878,-117.898062087944,Orange,CA
191,JT Schmids Restaurant & Brewery,brewpub,33.8056683,-117.8770639,Orange,CA
192,Phantom Ales,brewpub,33.8540325,-117.8667466,,
193,Mt Lowe Brewing Company,micro,34.1433223061224,-118.026825367347,Los Angeles,CA
194,Snowshoe Brewing Co,brewpub,38.2423881,-120.3617024,,
195,Figueroa Mountain Brewing - Arroyo Grande,brewpub,35.12102175,-120.60595819353,,
196,Dead Oak Brewing Company,micro,35.4897884,-120.6687359,San Luis Obispo,CA
197,Tent City Beer Company,micro,35.487726,-120.66767,San Luis Obispo,CA
198,Auburn Alehouse,brewpub,38.8961210674875,-121.078958250811,Placer,CA
199,Moonraker Brewing Company (Production Facility),micro,38.952499158384,-121.081368585457,Placer,CA
200,Tap and Vine,brewpub,38.8995673848688,-121.06949555199,Placer,CA
201,Crooked Lane Brewing Co,micro,38.9086988790416,-121.076938366006,Placer,CA
202,Catalina Island Brew House,micro,33.3434987,-118.3256345,,
203,Great Change Brewing,planning,35.3738712,-119.0194639,Kern,CA
204,Lengthwise Brewing Co,brewpub,35.3132345617977,-119.088547235955,,
205,Temblor Brewing Company,brewpub,35.3885985,-119.043071,Kern,CA
206,Brew Rebellion,micro,33.9256848888889,-116.876825,,
207,Bruehol Brewing LLC,proprietor,38.0808631276286,-122.127563713858,,
208,Fieldwork Brewing Co,regional,37.88157297059,-122.302214696327,,
209,The Rare Barrel,micro,37.8576209,-122.2914445,Alameda,CA
210,Gilman Brewing Company,micro,37.879466,-122.2998747,Alameda,CA
211,Hoi Polloi Brewpub and Beat Lounge,micro,37.8487711,-122.272181,,
212,Jupiter,brewpub,37.8697889,-122.2676799,Alameda,CA
213,Triple Rock Brewery and Alehouse,brewpub,37.873419,-122.268746,Alameda,CA
214,Trumer Brewery,regional,37.8768652612762,-122.303026514994,Alameda,CA
215,Big Bear Lake Brewing Co,brewpub,34.2425583,-116.9110287,,
216,Big Bear Mountain Brewery,brewpub,34.2387606160615,-116.923041952145,,
217,Mountain Rambler Brewery,micro,37.3606708,-118.3944494,Inyo,CA
218,Mad River Brewing Co,micro,40.878682,-123.992063,Humboldt,CA
219,TAPS Fish House and Brewery - Brea,brewpub,33.9171643,-117.9018387,Orange,CA
220,BJs Restaurant & Brewery - Brea,brewpub,33.9152037,-117.88632452245,Orange,CA
221,Firestone Walker Barrelworks,micro,34.624862704698,-120.188344744966,,
222,Figueroa Mountain Brewing,regional,34.61068975,-120.202222556244,Santa Barbara,CA
223,Brewery At Simmzys Burbank,brewpub,34.1572656,-118.3336262,,
224,Gordon Biersch Brewery Restaurant - Burbank,brewpub,34.1804175878314,-118.308339665739,Los Angeles,CA
225,Henson Brewing,micro,34.1816482,-118.3258554,,
226,Lincoln Beer Company,micro,34.2060527272727,-118.346620636364,Los Angeles,CA
227,Verdugo West Brewing Company,micro,34.17375015,-118.310368236032,Los Angeles,CA
228,Steelhead Brewing Co - Burlingame Station,brewpub,37.5799728,-122.346260663132,San Mateo,CA
229,Johnny's Calistoga / Mud City Brews,brewpub,38.578753,-122.579054,Napa,CA
230,Napa Valley Brewing Co/ Calistoga Inn,brewpub,38.5769344444444,-122.579631222222,,
231,"Brewery in Planning - Camarillo, CA",planning,34.2163939,-119.0376024,Ventura,CA
232,Institution Ale Company,brewpub,34.2164669058823,-119.020337176471,,
233,927 Beer Company,micro,35.5666725,-121.0985408,San Luis Obispo,CA
234,Climber Nine Brewing,planning,38.68200185,-120.985144245184,El Dorado,CA
235,HWY 50 Brewery,planning,38.7382366,-120.6749302,El Dorado,CA
236,Jack Russell Farm Ales,brewpub,38.753686472179,-120.680166365218,El Dorado,CA
237,Campbell Brewing Co,micro,37.2870748,-121.9332743,Santa Clara,CA
238,8one8 Brewing Company,micro,34.2218019,-118.5885323,Los Angeles,CA
239,Sante Adairius Rustic Ales,micro,36.9822865,-121.9405748,Santa Cruz,CA
240,Rouleur Brewing Company,micro,33.133904,-117.269558,San Diego,CA
241,Karl Strauss Brewing Co - Carlsbad,brewpub,33.124447,-117.314236,San Diego,CA
242,Papa Marce's Cerveceria,planning,33.1580933,-117.3505966,,
243,Pizza Port - Bressi Ranch,regional,33.1280776077661,-117.251077328407,,
244,Pizza Port Carlsbad,regional,33.1598703,-117.347715240745,,
245,Kuracali Inc,proprietor,33.11493,-117.315852,San Diego,CA
246,LogOff Brewing LLC,planning,38.62709845,-121.322242227554,,
247,Island Brewing Co,micro,34.3959039183673,-119.521007020408,Santa Barbara,CA
248,Rincon Brewery,brewpub,34.39834,-119.517858636364,,
249,Teeccino Brewing Company,planning,34.3988838,-119.5184564,,
250,Cayucos Brewing Co,contract,35.4471102222222,-120.902188358025,San Luis Obispo,CA
251,Great Beer Co,contract,34.2464328163265,-118.593284510204,Los Angeles,CA
252,Hand-Brewed Beer,micro,34.247668949495,-118.593024121212,Los Angeles,CA
253,British Bulldog Brewery,micro,39.8308113831538,-121.846831607774,Butte,CA
254,Eckert Malting and Brewing Co,micro,39.7142883877551,-121.824160183673,,
255,Sierra Nevada Brewing Co,regional,39.7257632,-121.8098801,Butte,CA
256,Chula Vista Brewery,micro,32.641495,-117.080369,San Diego,CA
257,Novo Brazil Brewing Company,micro,32.6518762,-116.9613594,San Diego,CA
258,Thr3e Punks Ale,micro,32.642827,-117.080107,San Diego,CA
259,Brewery in Planning - Claremont,planning,34.0966764,-117.7197785,Los Angeles,CA
260,Brewery In Planning - Claremont,planning,34.0966764,-117.7197785,Los Angeles,CA
261,Two Dude Brew,planning,38.9582307,-122.6263728,Lake,CA
262,Cloverdale Ale Company's Ruth McGowan's Brewpub,brewpub,38.8053232210103,-123.016572852146,,
263,559 Local Brewing,micro,36.8251717101389,-119.701748652921,Fresno,CA
264,Kings River Brewing Company,planning,36.8252277,-119.7029194,,
265,MachineHead Brewing Co.,planning,36.8252277,-119.7029194,Fresno,CA
266,Riley's Brew Pub,brewpub,36.855494,-119.6452626,,
267,Zone 9 Brewing Company,micro,36.8261033101924,-119.690656660515,,
268,Main Street Brewery,brewpub,33.8925168,-117.5636924,Riverside,CA
269,Stone Church Brewing,micro,33.8131807,-117.5046237,Riverside,CA
270,"Storytellers Brewery and Meet House, LLC",planning,33.8752945,-117.5664449,,
271,TAPS Fish House and Brewery - Corona,brewpub,33.8140831529874,-117.508854100175,,
272,Coronado Brewing Co,regional,32.6873641,-117.1791416,San Diego,CA
273,Alosta Brewing Co,micro,34.1036502643654,-117.878146550423,Los Angeles,CA
274,Port O'Pints Brewing Co.,brewpub,41.7686313926072,-124.199308523735,Del Norte,CA
275,Seaquake Brewing,brewpub,41.749045,-124.200063,Del Norte,CA
276,Brewery in Planning - Culver City,planning,34.0211224,-118.3964665,,
277,Brewery In Planning - Daly City,planning,37.7057671,-122.4619205,San Mateo,CA
278,Dunloe Brewing LLC,micro,38.5447433,-121.731124228063,Yolo,CA
279,Sudwerk Brewing Co,micro,38.546614,-121.726084,,
280,Super Owl Brewing,micro,38.5536351536866,-121.787547042088,,
281,Three Mile Brewing Co,micro,38.5440352156362,-121.739122047377,Yolo,CA
282,El Dorado Brewing Co,micro,38.6942363008724,-120.834516094692,El Dorado,CA
283,Solid Ground Brewing,brewpub,38.6932793,-120.8219606,,
284,Inc 82 Brewing,brewpub,37.7059588,-121.9377474,Alameda,CA
285,Dunsmuir Brewery Works,brewpub,41.211366,-122.271862,,
286,Burning Beard Brewing,micro,32.8120128709882,-116.971783587523,San Diego,CA
287,Elevation 66 Brewing Co,brewpub,37.9020418,-122.3030241,Contra Costa,CA
288,El Segundo Brewing Co,micro,33.91771,-118.4156967,Los Angeles,CA
289,Surfridge Brewing Company,planning,33.912594,-118.383179,Los Angeles,CA
290,Tilted Mash Brewery,micro,38.3880465600215,-121.361147165058,Sacramento,CA
291,Brewery In Planning - Elk Grove,planning,38.4087993,-121.3716178,Sacramento,CA
292,Flatland Brewing Company,micro,38.376847113657,-121.356768554505,Sacramento,CA
293,Devil's Potion Brewing Company LLC,planning,33.1216751,-117.0814849,San Diego,CA
294,Escondido Brewing Company,micro,33.124632,-117.097042,,
295,Plan 9 Alehouse,brewpub,33.1212147114584,-117.08217073041,San Diego,CA
296,Stone Brewing Co,regional,33.109969,-117.11565,San Diego,CA
297,Etna Brewing Co LLC,micro,41.4567414090909,-122.8918305,Siskiyou,CA
298,Paystreak Brewing,brewpub,41.4565805040105,-122.893701519339,,
299,Humboldt Springs Brewing Co,planning,40.8020712,-124.1636729,,
300,"Lost Coast Brewery and Cafe - Table Bluff Brewing, Inc.",regional,40.8030204693878,-124.164814102041,Humboldt,CA
301,The Booth Brewing Co.,micro,40.80226985,-124.174307223734,Humboldt,CA
302,Fair Oaks Brew Pub,brewpub,38.6418184858012,-121.268739323019,Sacramento,CA
303,Iron Springs Pub & Brewery,brewpub,37.9867011101135,-122.586252472669,Marin,CA
304,Anheuser-Busch Inc â Fairfield,large,38.2365838,-122.090299182842,Solano,CA
305,Blue Frog Brewing Company,micro,38.2585569,-122.0600589,,
306,Chau Tien Beer Company,contract,38.2493581,-122.0399663,Solano,CA
307,Old Country Brewing,planning,38.2493581,-122.0399663,,
308,Fallbrook Brewing Co,micro,33.3827337938989,-117.25164253479,San Diego,CA
309,North Coast Brewing Co Inc.,regional,39.4461840612245,-123.805760387755,,
310,Eel River Brewing Co,micro,40.5787419613881,-124.152447104672,,
311,Black Magic Brewing,planning,33.7038145,-117.9627349,,
312,Fossil Fuels Brewing Co,contract,37.4989939,-121.9215949,,
313,Jack's Brewing Co,brewpub,37.5442084028756,-121.988402464161,,
314,JP DasBrew,micro,37.5043737,-121.9577836,,
315,Sequoia Brewing Co - Tower District,brewpub,36.7577440769231,-119.801962153846,Fresno,CA
316,411 Broadway Ales,planning,36.7295295,-119.708861260756,Fresno,CA
317,Full Circle Brewing Co,micro,36.7268371852137,-119.790779671265,,
318,Sackbut Brewing and Barrelwerks,micro,36.7394665849273,-119.771520598509,Fresno,CA
319,Tactical OPS Brewing Inc.,proprietor,36.7913344,-119.6761563,Fresno,CA
320,Tioga-Sequoia Brewing Co,micro,36.7307167943916,-119.78830790357,Fresno,CA
321,Bootleggers Brewery,micro,33.87004,-117.928591,Orange,CA
322,Bootleggers Brewery,micro,33.8674125344355,-117.908009484784,Orange,CA
323,River Rock Brewery,micro,38.253278904173,-121.300412597904,,
324,Golden State Brew and Grill,brewpub,37.0088398004623,-121.569583923907,Santa Clara,CA
325,Brewyard Beer Company LLC,micro,34.159644,-118.3018112,Los Angeles,CA
326,Can Of Worms Brewing,planning,34.192912,-118.246248614754,Los Angeles,CA
327,Oak Grove Brewing Company,planning,34.192912,-118.246248614754,Los Angeles,CA
328,Hollister Brewing Co,brewpub,34.428764,-119.873842,,
329,Draughtsmen Aleworks,micro,34.4314617171717,-119.875990868687,Santa Barbara,CA
330,Stumptown Brewery,brewpub,38.5132067725656,-122.983801660587,Sonoma,CA
331,Brewjeria Company,planning,33.9930677,-117.9686755,Los Angeles,CA
332,Sacrilege Brewing Project,brewpub,37.460938,-122.42991315,San Mateo,CA
333,Brewery in Planning - Appleton,planning,33.911454,-118.34816,,
334,Common Space Brewery,micro,33.9165311870278,-118.332857374938,,
335,Los Angeles Ale Works,micro,33.9149155,-118.3322768,,
336,Buffalo Bills Brewery,brewpub,37.6770284,-122.0768666,,
337,Bear Republic Brewing Co,regional,38.6110317,-122.8713046,,
338,Abigaile,brewpub,33.8734519,-118.4048656,Los Angeles,CA
339,Brewery At Abigaile,brewpub,33.8734519,-118.4048656,Los Angeles,CA
340,Brewery Twenty Five,micro,36.8535938163265,-121.400836918367,San Benito,CA
341,Grillin & Chillin Alehouse,brewpub,36.851857298284,-121.398518972827,San Benito,CA
342,"Humble Farmer Brewing Co., Inc.",micro,32.8093331020408,-115.376335,Imperial,CA
343,Riip Beer Company,micro,33.6480028,-117.9872302,Orange,CA
344,Idyllwild Brewpub,brewpub,33.7436194950938,-116.71129596075,Riverside,CA
345,Tortugo Brewing Company,planning,33.96185,-118.3550377,Los Angeles,CA
346,Evans Brewing Co / Bayhawk Ales,micro,33.6856079818737,-117.855966694867,,
347,Left Coast Brewing Co. Tasting Room Smokehouse Distillery,brewpub,33.66814585,-117.764073295511,,
348,Jamul Brewing Co. - Production Only,micro,32.709923,-116.87742,San Diego,CA
349,Nickel Beer Co,micro,33.0762994189637,-116.590154368311,San Diego,CA
350,Julian Brewing Co,micro,33.079171,-116.603975,San Diego,CA
351,June Lake Brewing,micro,37.7783528228924,-119.077203195397,Mono,CA
352,Kelsey Creek Brewing,micro,38.9778256849289,-122.838290326681,Lake,CA
353,Absolution By the Sea,brewpub,32.8408338849995,-117.27401668866,,
354,The Fat Cat Beer Co,contract,32.8486900816327,-117.272442979592,San Diego,CA
355,Karl Strauss Brewing Co - La Jolla,brewpub,32.8467900923526,-117.27421410957,,
356,Rock Bottom Brewery - La Jolla,brewpub,32.870929,-117.23519,San Diego,CA
357,Bolt Brewery,brewpub,32.771889,-117.02043,San Diego,CA
358,Helix Brewing Co,micro,32.771907,-117.023442,San Diego,CA
359,Draughtsman Brewery,planning,33.9060971,-118.0107092,,
360,Alpenglow Beer Co,contract,37.8857582,-122.1180201,,
361,Laguna Beach Brewery and Grille,brewpub,33.5427913,-117.7835382,Orange,CA
362,Cebula Craft Brewing LLC dba GameCraft Brewing,planning,33.5948758,-117.6882067,,
363,Craft Brewing Company,micro,33.6867383235294,-117.340248911765,,
364,O'Meara Bros. Brewing Company,brewpub,39.0400526734986,-122.924554676154,,
365,Kinetic Brewing Company,brewpub,34.6978404,-118.1433223,,
366,Bravery Brewing,micro,34.6582797,-118.1456072,Los Angeles,CA
367,Marin Brewing Co,brewpub,37.9458177,-122.5068874,Marin,CA
368,Brewery In Planning - FPO,planning,32.7425516,-117.0314172,San Diego,CA
369,Bird Street Brewing,micro,36.3014675555556,-119.784711,Kings,CA
370,Dueling Dogs Brewing Company,planning,38.8915741,-121.29318,,
371,Altamont Beer Works,micro,37.6783911404914,-121.721097428074,Alameda,CA
372,Eight Bridges Brewing,micro,37.6989500360251,-121.814589292069,Alameda,CA
373,Pennyweight Craft Brewing,planning,37.6820583,-121.7680531,Alameda,CA
374,Gridlock Brewing Co,contract,37.6925177182377,-121.766979126043,Alameda,CA
375,The Dancing Fox,brewpub,38.097198,-121.387849646574,San Joaquin,CA
376,Five Window Beer Co,micro,38.136971,-121.29526,San Joaquin,CA
377,Idol Beer Works,micro,38.1328,-121.2722,San Joaquin,CA
378,Lodi Beer Company,brewpub,38.1328233877551,-121.273867612245,San Joaquin,CA
379,Burnin Daylight Brewing Company,planning,33.8036545,-118.3195014,,
380,Solvang Brewing Company - Lompoc,brewpub,34.6419814,-120.4574527,,
381,Long Beach Beer Lab,micro,33.8044209,-118.2156232,Los Angeles,CA
382,Rock Bottom Brewery - Long Beach,brewpub,33.767797,-118.192482,Los Angeles,CA
383,Ambitious Ales,planning,33.78538945,-118.158049315311,Los Angeles,CA
384,Ballast Point Brewing Company,large,33.7464176,-118.114750993963,,
385,Beachwood Blendery,micro,33.7701509591837,-118.189471530612,,
386,Belmont Brewing Co,brewpub,33.759551,-118.148045390244,,
387,Dutch's BrewHouse,brewpub,33.8781951,-118.1859647,,
388,Liberation Brewing,micro,33.8781951,-118.1859647,Los Angeles,CA
389,Steady Brewing,micro,33.825078,-118.133923,,
390,Loomis Basin Brewing Co,micro,38.8318201777774,-121.191644798979,Placer,CA
391,Brewery in Planning - Los Angeles,planning,34.0536834,-118.2427669,,
392,Dry River Brewing,micro,34.0363873913043,-118.223301521739,,
393,Iron Triangle Brewing Company,micro,34.036121885906,-118.237361765101,,
394,6th and La Brea,brewpub,34.0730485,-118.3440213,Los Angeles,CA
395,Angel City Brewery,micro,34.04627065,-118.237715014204,Los Angeles,CA
396,Arts District Brewing Company,brewpub,34.0450544285714,-118.235702857143,Los Angeles,CA
397,Boomtown Brewery,micro,34.0507711,-118.233179040171,,
398,Eagle Rock Brewery,micro,34.1147314285714,-118.244037714286,Los Angeles,CA
399,Frogtown Brewery,micro,34.1065655151515,-118.251520939394,,
400,Highland Park Brewery,micro,34.1141508,-118.1807106,Los Angeles,CA
401,Highland Park Brewery,brewpub,34.0659358248265,-118.233992219312,Los Angeles,CA
402,Karl Strauss Brewing Co - Downtown Los Angeles,brewpub,34.047978,-118.256154,,
403,Lawless Brewing,planning,34.0536834,-118.2427669,Los Angeles,CA
404,Mumford Brewing Company,micro,34.0464181026579,-118.242599756959,Los Angeles,CA
405,Ohana Brewing Co,micro,34.0157562857143,-118.241560857143,Los Angeles,CA
406,The Stalking Horse,brewpub,34.0478786,-118.3273271,Los Angeles,CA
407,Wiretap Brewing Corporation,micro,34.0685234551287,-118.222037638743,Los Angeles,CA
408,Brewery in Planning - Los Gatos,planning,37.226611,-121.9746797,Santa Clara,CA
409,Soquel Fermentation Project,micro,37.226611,-121.9746797,Santa Clara,CA
410,Riley's Brewing Co,micro,36.9744555309876,-120.020622554844,,
411,Second Son Brews,micro,36.9341605917925,-119.858096535425,Madera,CA
412,Feather River Brewing Co,micro,39.8408859166667,-121.577762083333,Butte,CA
413,Black Doubt Brewing Company,micro,37.6395882,-118.9668019,,
414,1850 Brewing Company,micro,37.570148,-119.9036592,Mariposa,CA
415,Rocksteady Brewing Co.,brewpub,38.0177998,-122.137811869831,Contra Costa,CA
416,Six Rivers Brewery,brewpub,40.9260642,-124.1003888,,
417,Headlands Brewing Company,proprietor,37.9060368,-122.5449763,,
418,Mill Valley Beer Works,brewpub,37.9053888,-122.5493619,,
419,Hop Secret Brewing Co,micro,34.134155,-118.001973040816,Los Angeles,CA
420,Pacific Plate Brewing Co,micro,34.1492456,-118.0010497,Los Angeles,CA
421,Brewery in Planning - Montclair,planning,34.0775104,-117.6897776,San Bernardino,CA
422,Dragon's Tale Brewery,micro,34.0918989791649,-117.686437,San Bernardino,CA
423,Angry Horse Brewing,micro,34.0084152,-118.1003743,,
424,Alvarado Street Brewery & Grill,brewpub,36.5985775510204,-121.894609632653,Monterey,CA
425,Canyon Club Brewery,planning,37.834897,-122.12883,Contra Costa,CA
426,El Toro Brewing Company Brewpub,brewpub,37.1864644,-121.7082244,Santa Clara,CA
427,Palo Alto Brewing Co,contract,37.4132678904411,-122.071765718906,Santa Clara,CA
428,Tied House Cafe and Brewery-Mtn View,brewpub,37.3946092,-122.0806432,Santa Clara,CA
429,Electric Brewing Co,micro,33.5268827,-117.172438,Riverside,CA
430,Downtown Joes Brewery and Restaurant,brewpub,38.2986565341617,-122.284893629393,Napa,CA
431,Hop Creek Pub,brewpub,38.3041333,-122.328868,Napa,CA
432,Napa Palisades Beer Company,proprietor,38.299359,-122.285449,Napa,CA
433,Silo's,brewpub,38.29617,-122.2828832,Napa,CA
434,St Clair Brown Winery & Brewery,micro,38.304877,-122.286082,Napa,CA
435,Tarla Mediterranean Bar and Grill,brewpub,38.2971973781702,-122.289764974638,,
436,The Runway By Patrick,brewpub,38.2171014,-122.2730244,,
437,Trade Brewing,micro,38.3007339591837,-122.282183755102,Napa,CA
438,Ol' Republic Brewery,micro,39.2527230322759,-121.024460185452,,
439,Three Forks Bakery & Brewing Company,brewpub,39.2629979755326,-121.017467013289,Nevada,CA
440,Brewery Draconum,micro,34.3812205055908,-118.529873150559,Los Angeles,CA
441,Sons of Liberty Aleworks,micro,33.9277892,-117.5597542,,
442,Indian Valley Brewing,micro,38.0682836733387,-122.535014356985,,
443,Moylan's Brewery & Restaurant,brewpub,38.0944860393125,-122.55705476448,Marin,CA
444,Trail Dog Brewing Co.,planning,38.1061979,-122.5681191,Marin,CA
445,South Gate Brewing Co,brewpub,37.3317277386243,-119.661803800305,,
446,Woods Bar & Brewery,brewpub,37.8069575,-122.2704253,,
447,Ale Industries,micro,37.7761111,-122.2281897,,
448,Brewery in Planning - Oakland,planning,37.8044557,-122.2713563,,
449,Diving Dog Brewhouse,micro,37.807739,-122.2698881,,
450,Ghost Town Brewing,micro,37.8139174766419,-122.284439629224,Alameda,CA
451,Independent Brewing Co,micro,37.7964297,-122.2711853,,
452,Old Kan Beer & Co,brewpub,37.7995945,-122.2879928,Alameda,CA
453,Original Pattern Brewing Company,micro,37.796075,-122.2718245,Alameda,CA
454,Roses' Taproom,micro,37.8143551,-122.2683709,,
455,Tack Brewing,planning,37.8044557,-122.2713563,Alameda,CA
456,Temescal Brewing,micro,37.8303644,-122.2645038,,
457,Woods Beer Company,brewpub,37.8069575,-122.2704253,,
458,Dark Sea Cinema And Brewery,planning,37.8044557,-122.2713563,Alameda,CA
459,Novel Brewing Company,micro,37.837819,-122.282003,Alameda,CA
460,Oceanside Brewing Company,micro,33.2136973549748,-117.352957287439,,
461,Bagby Beer Company,brewpub,33.189591,-117.373847,,
462,Belching Beaver Brewery,regional,33.2139275,-117.292416,San Diego,CA
463,Black Plague Brewing,micro,33.215571,-117.266825,San Diego,CA
464,Legacy Brewing Company,micro,33.2154689215292,-117.350168656157,,
465,Mason Ale Works,micro,33.171842,-117.358767,San Diego,CA
466,Northern Pine Brewing,micro,33.199836,-117.376798,,
467,Midnight Jack Brewing Company,micro,33.204836,-117.304737,San Diego,CA
468,Strum Brewing Company,micro,34.0615608571429,-117.641250485714,San Bernardino,CA
469,Berts Brewing Co.,planning,33.7500378,-117.8704931,,
470,Black Cock Brewing Company,micro,33.8274902,-117.8620026,Orange,CA
471,Chapman Crafted Beer,micro,33.788493,-117.856454,Orange,CA
472,Feather Falls Brewing Co,brewpub,39.46576,-121.521407,Butte,CA
473,Minerâs Alley Brewing Company,brewpub,39.514149122449,-121.55497922449,Butte,CA
474,Red Tandem Brewery,micro,34.2068743,-119.2474328,Ventura,CA
475,Transmission Brewing Company,planning,34.1976308,-119.1803818,,
476,Craft Artisan Ales,contract,36.6174432,-121.9155906,,
477,Pedro Point Brewing,micro,37.6511615833333,-122.491021666667,San Mateo,CA
478,Craftsman Brewing Co,micro,34.1674435,-118.1595567,Los Angeles,CA
479,Cerveceria Del Pueblo,planning,34.1476452,-118.1444779,,
480,Dr Jekyll's Craft Beer,contract,34.1605907706144,-118.07986421784,,
481,First Water Brewing Company,planning,34.1476452,-118.1444779,Los Angeles,CA
482,Converge Brewing Company,planning,35.6267654,-120.6912456,San Luis Obispo,CA
483,Toro Creek Brewing Co,micro,35.6262455,-120.6872603,San Luis Obispo,CA
484,Highway 1 Brewing Company,brewpub,37.229747,-122.411815,San Mateo,CA
485,Dempsey's Restaurant And Brewery,brewpub,38.2348199,-122.6391907,Sonoma,CA
486,Lagunitas Brewing Co,large,38.27264795,-122.661919826192,,
487,Pismo Brewing Co,micro,35.13908295,-120.64091923506,San Luis Obispo,CA
488,E.J. Phair Brewing Co.,micro,38.0330804,-121.8824742,,
489,Offshoot Beer Co.,micro,33.8611259658639,-117.880181995951,Orange,CA
490,Stereo Brewing Co,micro,33.8633095660543,-117.820080198027,Orange,CA
491,"Bruery, The",micro,33.8623093,-117.8791616,Orange,CA
492,Old Hangtown Beer Works,micro,38.7296252,-120.798546,,
493,Outbreak Brewing Co.,micro,38.7293661000139,-120.794212003516,El Dorado,CA
494,Placerville Brewing Co,brewpub,38.7276787017952,-120.837068616966,El Dorado,CA
495,Amador Brewing Company,micro,38.4808723,-120.849271,Amador,CA
496,"The Feinics Company, Inc.",planning,38.7497125,-120.577664468816,El Dorado,CA
497,Old Stump Brewery,micro,34.0976380821684,-117.754146518132,Los Angeles,CA
498,Hare In the Forest,micro,39.3362393422819,-123.12527033557,Mendocino,CA
499,Farmers Brewing Co,planning,39.4032192,-122.009975,Colusa,CA
500,Star B Ranch,planning,33.035378,-116.867513220741,San Diego,CA
501,Claimstake Brewing Company,micro,38.5818591632653,-121.260763428571,,
502,Fort Rock Brewing,micro,38.6258653367985,-121.224877845979,,
503,Ol' Republic Brewery Rancho Cordova,micro,38.6021921668798,-121.270603919157,Sacramento,CA
504,Old Hangtown Beer Works,micro,38.6075491,-121.264149,Sacramento,CA
505,Brewery in Planning - Rancho Cucamonga,planning,34.1033192,-117.5751735,San Bernardino,CA
506,Kings Brewing Company,micro,34.1064155,-117.6110744,,
507,No Clue Craft Brewery,micro,34.0990988,-117.5410707,San Bernardino,CA
508,Laguna Beach Beer Co,micro,33.6360352824446,-117.610819350163,Orange,CA
509,Cedar Crest Brewing and Wine Bar,brewpub,40.1767575714286,-122.234416714286,,
510,Final Draft Brewing Company,brewpub,40.5820505,-122.3913371,Shasta,CA
511,Wildcard Brewing Company,micro,40.562008,-122.298177,,
512,Woody's Brewery,brewpub,40.585948,-122.395336666667,,
513,Escape Craft Brewery,micro,34.0603401026307,-117.217577166632,San Bernardino,CA
514,Hangar 24 Craft Brewery,regional,34.0831712,-117.1419134,San Bernardino,CA
515,Ritual Brewing Co,micro,34.0705986,-117.2369995,San Bernardino,CA
516,King Harbor Brewing Co,micro,33.8656189127517,-118.360065597315,Los Angeles,CA
517,Origin Brewer,micro,37.9357576,-122.3477486,Contra Costa,CA
518,Greywolf Brewing,planning,33.9533546,-117.3961623,Riverside,CA
519,Heroes Restaurant and Brewery,brewpub,33.9813595353206,-117.370114265666,,
520,Lot 713 Craft Brewery,planning,33.9533546,-117.3961623,Riverside,CA
521,5150 Brewing At The Brass Tap Rocklin,micro,38.8047402,-121.207331,,
522,Moksa Brewing Co,micro,38.7818418276867,-121.241829911584,Placer,CA
523,Out of Bounds Brewing Company,micro,38.8004507352941,-121.228979735294,Placer,CA
524,Bear Republic Brewing Co Pub & Restaurant - Lakeside,brewpub,38.3649703,-122.7101405,Sonoma,CA
525,Monk's Cellar,brewpub,38.7495873673469,-121.283398265306,,
526,Fountainhead Brewing Co,micro,38.5332279038371,-121.483117319123,Sacramento,CA
527,Track 7 Brewing Co - Natomas,micro,38.6543681,-121.4908802,,
528,Urban Roots Brewing,brewpub,38.5657962653061,-121.49459077551,,
529,Alaro Craft Brewery,brewpub,38.5732396122449,-121.481183469388,,
530,At Ease Brewing,planning,38.5815719,-121.4943996,Sacramento,CA
531,Big Sexy Brewing Company,micro,38.5214986442953,-121.375723677852,Sacramento,CA
532,Big Stump Brewing Company,micro,38.6888787523924,-121.426333372315,,
533,Device Brewing Company,micro,38.5394925212225,-121.40593711332,,
534,Golden Road Brewing Co,planning,38.5815719,-121.4943996,Sacramento,CA
535,Hoppy Brewing Co,brewpub,38.5596222857143,-121.481207836735,,
536,King Cong Brewing Company,micro,38.6077175714286,-121.456029,,
537,New Glory Craft Brewery,micro,38.5356293265306,-121.402102040816,Sacramento,CA
538,New Helvetia Brewing Company,micro,38.5607772,-121.4899398,,
539,Oak Park Brewing Co,brewpub,38.55062715,-121.468104593922,Sacramento,CA
540,Porchlight Brewing Company,micro,38.5659589,-121.4334621,Sacramento,CA
541,Ruhstaller Beer,micro,38.5800452765957,-121.497428042553,Sacramento,CA
542,Sacrament Brewing,micro,38.5779492653061,-121.484927510204,,
543,Touchstone Brewing Company,planning,38.5815719,-121.4943996,Sacramento,CA
544,Mad Fritz,micro,38.4998578080808,-122.458418646465,,
545,Blue Oak Brewing Co,micro,37.5100817268499,-122.253486421244,,
546,Devil's Canyon Brewing Company,micro,37.498965755102,-122.244541265306,San Mateo,CA
547,Left Coast Brewing Co.,micro,33.4587307,-117.5922336,Orange,CA
548,Pizza Port San Clemente,brewpub,33.4288345,-117.613484038369,,
549,Abnormal Beer Company,micro,33.02391,-117.08575,San Diego,CA
550,Brewery in Planning - San Diego,planning,32.7174209,-117.1627714,,
551,Eppig Brewing,micro,32.755723,-117.128732,San Diego,CA
552,Mike Hess Brewing - Miramar,micro,32.8908008085346,-117.151828378447,San Diego,CA
553,New English Brewing Co Inc,micro,32.912641,-117.230519,San Diego,CA
554,Stone Brewing World Bistro & Gardens- Liberty Station,brewpub,32.7405237,-117.21157,San Diego,CA
555,Thunderhawk Alements,micro,32.8957500613992,-117.137466970906,San Diego,CA
556,Alta Brewing Company,micro,32.7018758,-117.141471216793,San Diego,CA
557,10 Barrel Brewing Co,large,32.714813,-117.129593,San Diego,CA
558,2Kids Brewing Company,micro,32.896584,-117.137429,San Diego,CA
559,Align Brewing Co,micro,32.896584,-117.137429,San Diego,CA
560,Amplified Ale Works,brewpub,32.7719729,-117.2511178,San Diego,CA
561,Ballast Point Brewing Company,large,32.887980832974,-117.158725107822,San Diego,CA
562,Ballast Point Brewing Company,large,32.889641,-117.157081,San Diego,CA
563,Ballast Point Brewing Company - Little Italy,large,32.727777,-117.169738,San Diego,CA
564,Border X Logan,brewpub,32.6982174013939,-117.139754116945,San Diego,CA
565,California Wild Ales,contract,32.905002,-117.2146488,San Diego,CA
566,Coronado Brewing Co - Production Facility,regional,32.753124,-117.094383,,
567,Council Brewing - Magic Factory,micro,32.8346629601785,-117.154409240036,San Diego,CA
568,Council Brewing Company,micro,32.8346629601785,-117.154409240036,San Diego,CA
569,Deft Brewing,micro,32.7643543248057,-117.199343259846,San Diego,CA
570,Division 23 Brewing,micro,32.890353,-117.162908,San Diego,CA
571,Duck Foot Brewing Co.,micro,32.8847483530585,-117.156218065696,San Diego,CA
572,Fall Brewing Company,micro,32.7599751418351,-117.13028019183,San Diego,CA
573,"G8 Development, Inc.",planning,32.7174209,-117.1627714,San Diego,CA
574,Globier,planning,32.7174209,-117.1627714,San Diego,CA
575,Gordon Biersch Brewery Restaurant - San Diego,brewpub,32.7740128,-117.1539235,San Diego,CA
576,Green Flash Brewing Co,regional,32.9167796,-117.113975,San Diego,CA
577,Half Door Brewing Company,brewpub,32.710248,-117.156268,,
578,Hillcrest Brewing Company,brewpub,32.7484921,-117.1260866,,
579,Hodad's Brewing Company,planning,32.7174209,-117.1627714,San Diego,CA
580,Home Brewing Co.,micro,32.755029,-117.131109,San Diego,CA
581,Intergalactic Brewing Co,micro,32.898732788017,-117.12234929993,San Diego,CA
582,Karl Strauss Brewing Co,regional,32.832579,-117.231429,San Diego,CA
583,Karl Strauss Brewing Co - Sorrento Mesa,brewpub,32.8963456602055,-117.202706585848,,
584,Karl Strauss Brewing Co - 4S Ranch,brewpub,33.021301,-117.113249,San Diego,CA
585,Karl Strauss Brewing Co - Downtown,brewpub,32.7173008602367,-117.167283778348,San Diego,CA
586,Kilowatt Brewing,micro,32.8276353,-117.208801,San Diego,CA
587,Knotty Brewing Co.,micro,32.711658,-117.127434,,
588,Little Miss Brewing,micro,32.89183,-117.148488,San Diego,CA
589,Mike Hess Brewing,micro,32.747711,-117.12854,San Diego,CA
590,Mikkeller Brewing San Diego,micro,32.8914630654776,-117.144170957093,San Diego,CA
591,Mission Brewery,micro,32.6220746,-117.0682152,,
592,Modern Times - The Dankness Dojo,brewpub,32.754233,-117.206153,San Diego,CA
593,Modern Times Barrel House,micro,32.7553932482817,-117.208724993243,San Diego,CA
594,Modern Times Beer,regional,32.754233,-117.206153,,
595,Monkey Paw Brewing,micro,32.7138444137475,-117.149375,San Diego,CA
596,North Park Beer Co.,micro,32.748724,-117.129137,San Diego,CA
597,Ocean Beach Brewery,brewpub,32.747109,-117.252024,San Diego,CA
598,Oggis Pizza & Brewing Co - Carmel Mountain Ranch,brewpub,32.965495,-117.089795,San Diego,CA
599,Pacific Beach Ale House,brewpub,32.794255,-117.255265,San Diego,CA
600,Poor House Brewing,micro,32.758977,-117.130404,San Diego,CA
601,Protector Brewery,micro,32.896584,-117.137429,San Diego,CA
602,Pure Project,micro,32.8883015070801,-117.155535128534,San Diego,CA
603,Quantum Brewing Co,micro,32.8901624,-117.1170304,,
604,Resident Brewing,micro,32.7166799540699,-117.160878508811,San Diego,CA
605,Rip Current Brewing North Park,brewpub,32.752388,-117.129808,San Diego,CA
606,Second Chance Beer Company,micro,32.994888,-117.082033,,
607,Societe Brewing Company,micro,32.8338146,-117.1463568,San Diego,CA
608,South Park Brewing,brewpub,32.7470971,-117.130074,San Diego,CA
609,Stover Brewing,planning,32.7174209,-117.1627714,,
610,Tenacious Brewing Company,planning,32.7174209,-117.1627714,,
611,The Bell Marker,brewpub,32.597261,-117.0763473,San Diego,CA
612,Thorn Brewing Co,micro,32.702171,-117.147735,San Diego,CA
613,Thorn Street Brewery,micro,32.739337,-117.125379,San Diego,CA
614,White Labs Tasting Room,micro,32.895843,-117.121435,San Diego,CA
615,Alpine Beer Company,brewpub,32.9167796,-117.113975,San Diego,CA
616,Automatic Brewing Co. / Blind Lady Alehouse,brewpub,32.763588,-117.120151,San Diego,CA
617,Bay City Brewing Co.,micro,32.7580759,-117.211783346257,San Diego,CA
618,Border X Brewing,micro,32.6982174013939,-117.139754116945,San Diego,CA
619,Pizza Port Ocean Beach,brewpub,32.74799385,-117.250359241478,San Diego,CA
620,Saint Archer Brewing Company,large,32.880445,-117.163745,,
621,Clayton Brewing Co,contract,34.1066017,-117.826752,,
622,Feathered Serpent Brewery,planning,34.1066756,-117.8067257,,
623,San Fernando Brewing Co.,micro,34.2828803013451,-118.432206748452,Los Angeles,CA
624,Black Hammer Brewing,micro,37.780655,-122.3969947,San Francisco,CA
625,Fort Point Beer Company,regional,37.789461244898,-122.410227755102,San Francisco,CA
626,Magnolia Dogpatch,micro,37.7577437,-122.3880818,San Francisco,CA
627,Sufferfest Beer Company,proprietor,37.7980748571429,-122.428394714286,San Francisco,CA
628,Woods CervecerÃ­a,brewpub,37.761163,-122.4285438,San Francisco,CA
629,Beach Chalet Brewing Co,brewpub,37.7252994,-122.502981,San Francisco,CA
630,21st Amendment Brewery Cafe,brewpub,37.782448,-122.3925769,San Francisco,CA
631,Anchor Brewing Co,large,37.7630772,-122.4011065,San Francisco,CA
632,Barebottle Brewing Company,micro,37.74000915,-122.40904048683,San Francisco,CA
633,Barrel Head Brewhouse,brewpub,37.7757651428571,-122.446103285714,San Francisco,CA
634,Bartlett Hall,brewpub,37.786406375,-122.40872925,San Francisco,CA
635,Black Sands Brewery,micro,37.7715719,-122.433863,,
636,Brewery in Planning - Calistoga,planning,37.7792808,-122.4192363,San Francisco,CA
637,Cellarmaker Brewing Company,micro,37.7771589,-122.4106996,San Francisco,CA
638,Ferment.Drink.Repeat,micro,37.7283367755102,-122.403999122449,San Francisco,CA
639,Harmonic Brewing,micro,37.7514996122449,-122.390096163265,San Francisco,CA
640,K-Oz Restaurant Brewery,brewpub,37.7786408,-122.409904,San Francisco,CA
641,Local Brewing Co,micro,37.776173,-122.3973825,San Francisco,CA
642,Magnolia Brewing Company,brewpub,37.7703537,-122.4452044,San Francisco,CA
643,Motobrewer,planning,37.7792808,-122.4192363,,
644,Oda Restaurant,brewpub,37.7687392,-122.3954096,,
645,Old Bus Tavern,brewpub,37.745701,-122.419510285653,,
646,Palmia,proprietor,37.804342,-122.4438993,San Francisco,CA
647,Pine Street Brewery,micro,37.7792808,-122.4192363,,
648,Social Kitchen & Brewery,brewpub,37.7635041,-122.466066221684,San Francisco,CA
649,Southern Pacific Brewing,brewpub,37.7601311,-122.4139896,,
650,Southpaw BBQ & Southern Cooking,brewpub,37.7634391,-122.4195306,San Francisco,CA
651,Speakeasy Ales and Lagers,micro,37.7385453061224,-122.380855673469,San Francisco,CA
652,Standard Deviant Brewing,micro,37.7683792941177,-122.419598352941,,
653,Sunset Reservoir Brewing Company,brewpub,37.7538314,-122.4823594,San Francisco,CA
654,ThirstyBear Organic Brewery,brewpub,37.785543,-122.399512,,
655,Topsy's,brewpub,37.7905261428571,-122.403877942857,San Francisco,CA
656,Toy Soldier,brewpub,37.7912978125,-122.403671041667,,
657,Triple Voodoo Brewing Co,micro,37.7611618,-122.3884378,San Francisco,CA
658,TW Pitchers Brewing Co,contract,37.7630777142857,-122.475048571429,San Francisco,CA
659,Ogopogo Brewing,micro,34.096219,-118.089147586207,Los Angeles,CA
660,Camino Brewing Co LLC,micro,37.3253017839889,-121.882347823612,,
661,Geartooth AleWerks,micro,37.315251291037,-121.866477333785,,
662,Hermitage Brewing Company,regional,37.3153140881948,-121.866525688348,Santa Clara,CA
663,Ale House Brewing Co,micro,37.3361905,-121.8905833,Santa Clara,CA
664,Bison Brewing Co,contract,37.3153140881948,-121.866525688348,Santa Clara,CA
665,Brewtality,contract,37.3331712,-121.8541694,Santa Clara,CA
666,Gordon Biersch Brewing Co,regional,37.3567304,-121.8841169,Santa Clara,CA
667,Hapa's Brewing Company,micro,37.2917841,-121.888991,Santa Clara,CA
668,Moksha Beer,contract,37.3361905,-121.8905833,Santa Clara,CA
669,Santa Clara Valley Brewing,micro,37.3163530780456,-121.873871843909,Santa Clara,CA
670,South Bay Brewco,contract,37.3331712,-121.8541694,Santa Clara,CA
671,Uproar Brewing,brewpub,37.329391892769,-121.885637335649,Santa Clara,CA
672,Whole Foods Market Brewing Company- Floodcraft Brewing,brewpub,37.3315931,-121.9087451,Santa Clara,CA
673,Cleophus Quealy Beer Company,micro,37.72210256312,-122.191420172955,Alameda,CA
674,Dr Hops Kombucha Beer,planning,37.7249296,-122.1560768,Alameda,CA
675,7 Sisters Brewing Co,brewpub,35.2467277959184,-120.670637530612,,
676,Libertine Brewing Company,brewpub,35.2777052,-120.6631926,San Luis Obispo,CA
677,Underground Brewing Co.,brewpub,35.2493387,-120.6420324,San Luis Obispo,CA
678,Bang the Drum Brewery,micro,35.2615498,-120.645233810861,San Luis Obispo,CA
679,Central Coast Brewing Co - Higuera St.,brewpub,35.2651725,-120.67099075,San Luis Obispo,CA
680,SLO Brewing Co,micro,35.2793012,-120.6640407,San Luis Obispo,CA
681,There Does Not Exist,planning,35.2827525,-120.6596156,,
682,Port Brewing Co / The Lost Abbey,micro,33.141537,-117.149141,,
683,Dos Desperados Brewery,micro,33.1374039147521,-117.192821629842,,
684,Stumblefoot Brewing,micro,33.1041969447363,-117.219483815862,San Diego,CA
685,Urge Gastropub & Common House/Mason Ale Works,brewpub,33.135679,-117.158627,San Diego,CA
686,Wild Barrel Brewing Company,micro,33.140152,-117.145752,San Diego,CA
687,San Pedro Brewing Co,brewpub,33.7386421,-118.2842712,Los Angeles,CA
688,State Room Brewery,brewpub,37.9732744779465,-122.52865849686,Marin,CA
689,Canyon Lakes Golf Course & Brewery,brewpub,37.7711485569157,-121.947880000014,,
690,House Of Pendragon Brewing Co,micro,36.6892344202513,-119.549609431485,,
691,Deans Brothers Brewing Co.,micro,33.7353304960034,-117.853182042562,Orange,CA
692,Network Brewery,micro,33.7119032978487,-117.845559033414,Orange,CA
693,Old 290 Brewery,planning,33.7494951,-117.8732213,Orange,CA
694,"The Good Beer Company, Inc.",micro,33.7480782319083,-117.869958071529,Orange,CA
695,Pure Order Brewing Co,micro,34.4235120714286,-119.686497857143,Santa Barbara,CA
696,Santa Barbara Brewing Co,brewpub,34.4404959,-119.7526684,Santa Barbara,CA
697,Telegraph Brewing Co,micro,34.4228600952381,-119.688165095238,,
698,The Brewhouse,brewpub,34.4124557391304,-119.69542473913,Santa Barbara,CA
699,Golden State Brewery,micro,37.3625383916082,-121.950316757586,Santa Clara,CA
700,Taplands Brewery,brewpub,37.3481478859025,-121.946024306771,Santa Clara,CA
701,Pocock Brewing Company,micro,34.4307943469388,-118.571182040816,Los Angeles,CA
702,Shanty Shack Brewing,brewpub,36.9859968034963,-122.030853013199,Santa Cruz,CA
703,East Cliff Brewing Company,micro,36.9684053,-122.0136488,Santa Cruz,CA
704,Humble Sea Brewing Co,brewpub,36.9595996,-122.0490197,Santa Cruz,CA
705,New Bohemia Brewing Co,brewpub,36.9666152449717,-121.964793547168,Santa Cruz,CA
706,TUYA SuperBrewing Co.,planning,36.974201,-122.0297182,Santa Cruz,CA
707,Woodhouse Blending & Brewing,planning,36.974201,-122.0297182,Santa Cruz,CA
708,Dunbar Brewing,micro,35.389717,-120.6112948,San Luis Obispo,CA
709,Coastal Star Brewing Company,planning,34.9531295,-120.4358577,,
710,Steele and Hops Public House,brewpub,38.459216,-122.717258,Sonoma,CA
711,2 Tread Brewing Co,brewpub,38.4387767,-122.716772864805,Sonoma,CA
712,Fogbelt Brewing Co,brewpub,38.4490003952644,-122.726607894552,,
713,HenHouse Brewing,micro,38.4017722037199,-122.724130155207,Sonoma,CA
714,Old Possum Brewing Company,brewpub,38.3909741926312,-122.72520784451,Sonoma,CA
715,Plow Brewing Company,micro,38.4745522221729,-122.740072013595,,
716,Russian River Brewing Co,regional,38.4418139,-122.7116607,Sonoma,CA
717,Russian River Brewing Co - Production,micro,38.4216577,-122.7094385,Sonoma,CA
718,Seismic Brewing Co,micro,38.4042274995945,-122.723620271205,Sonoma,CA
719,Third Street Aleworks,brewpub,38.43982595007,-122.713217499838,Sonoma,CA
720,Yeti Restaurant,brewpub,38.4497163635054,-122.688361,,
721,Shady Oak Barrel House,micro,38.4370939574769,-122.715472553127,,
722,Council Brewing Company,micro,32.832115,-116.97958,San Diego,CA
723,Groundswell Brewing Co,micro,32.8310696,-116.9644235,San Diego,CA
724,3 Disciples Brewing,micro,38.3845125,-122.833250158374,Sonoma,CA
725,California Cider Co.,planning,38.3845125,-122.833250158374,Sonoma,CA
726,Woodfour Brewing Company,brewpub,38.4033133,-122.8211041,Sonoma,CA
727,Bluebird Brasserie,brewpub,34.1489109,-118.4365891,Los Angeles,CA
728,Brewery in Planning - Sherman Oaks,planning,34.1508718,-118.4489865,,
729,Ten Mile Brewing,micro,33.8043697,-118.1806752,Los Angeles,CA
730,Pizza Port Solana Beach,brewpub,32.9977749,-117.2737068,,
731,Solvang Brewing Co,brewpub,34.5961546638664,-120.144866279994,Santa Barbara,CA
732,Sonoma Springs Brewing Co,micro,38.294506,-122.477788,Sonoma,CA
733,Sonoma Grille,brewpub,38.2920432165175,-122.459982098514,Sonoma,CA
734,Progress Brewing,micro,34.0493571836516,-118.059884749276,,
735,South Lake Brewing Company,micro,38.9118004,-120.0074997,El Dorado,CA
736,Brewery At Lake Tahoe,brewpub,38.9467943321399,-119.961915731826,El Dorado,CA
737,Outpost Brewing Co,micro,38.9609739411765,-119.945000117647,,
738,Sidellis Lake Tahoe,brewpub,38.9447279499115,-119.969867893245,El Dorado,CA
739,Cold Water Brewery and Grill,brewpub,38.925231,-119.986213,El Dorado,CA
740,Lake Tahoe AleWorX,micro,38.9147620899163,-120.001995680535,,
741,47 Hills Brewing Co,brewpub,37.64425595,-122.413616770068,San Mateo,CA
742,Brewery in Planning - Stevenson Ranch,planning,34.3864721,-118.5826635,Los Angeles,CA
743,High Water Brewing,proprietor,37.9577016,-121.2907796,,
744,Channel Brewing Co.,micro,37.9543919591837,-121.287410571429,San Joaquin,CA
745,Right Eye Brewing Co,micro,38.242484,-122.041544,Solano,CA
746,Faultline Brewing Co,brewpub,37.3868866209258,-121.989575525141,Santa Clara,CA
747,Firehouse Grill & Brewery,brewpub,37.37738,-122.03007,Santa Clara,CA
748,Red Branch Brewing Company / Rabbits Foot Meadery,micro,37.40446295,-121.992082676137,Santa Clara,CA
749,Lassen Ale Works @ The Pioneer Saloon,brewpub,40.4055904,-120.6326661,Lassen,CA
750,Black Gold Brewing Co,brewpub,35.1410971836735,-119.459165816327,Kern,CA
751,Tahoe Mountain Brewing Company,brewpub,39.170687,-120.141663,Placer,CA
752,Death Valley Brewing,micro,35.8488923548575,-116.206339351428,,
753,Aftershock Brewing Co,micro,33.4931038237071,-117.148530613469,Riverside,CA
754,Karl Strauss Brewing Co,brewpub,33.5258689204202,-117.158447917817,,
755,Tarantula Hill Brewing Company,planning,34.17142715,-118.910587729744,,
756,Westlake Brewing & Libation,micro,34.161542,-118.809516,Ventura,CA
757,Coachella Valley Brewing Co,micro,33.826202,-116.401697,,
758,Absolution Brewing Co,micro,33.8431391,-118.3378601,,
759,Cosmic Brewery,micro,33.8450009362138,-118.31311668331,Los Angeles,CA
760,Dudes' Brewing Co,micro,33.8417185,-118.3115036,Los Angeles,CA
761,Monkish Brewing Co,micro,33.8465751,-118.3101863,Los Angeles,CA
762,Red Car Brewery and Restaurant,brewpub,33.8353441138618,-118.316127395501,Los Angeles,CA
763,Scholb Premium Ales,micro,33.8431475,-118.339288,,
764,Smog City Brewing Wood Cellar,micro,33.8467722,-118.3180205,Los Angeles,CA
765,Strand Brewing Co,micro,33.8414814,-118.3240401,Los Angeles,CA
766,Yorkshire Square Brewing Co.,micro,33.8372008461408,-118.316350719908,Los Angeles,CA
767,Zymurgy Brew Works,micro,33.8635371,-118.3524672,,
768,HopSaint Brewing Company,brewpub,33.8577324,-118.367733,,
769,John Scott Brewing Co.,planning,33.6626232,-117.58938,,
770,Morgan Territory Brewing,micro,37.7545317,-121.4145449,San Joaquin,CA
771,FiftyFifty Brewing Production Facility,micro,39.3225323692432,-120.193172369243,,
772,Kaweah Brewing Co.,micro,36.1930799286453,-119.334979752843,,
773,Dust Bowl Brewing Co,micro,37.50655825,-120.88265345,Stanislaus,CA
774,Sandude Brewing Co,micro,37.479896,-120.859873,Stanislaus,CA
775,Archaic Craft Brewery At Centro,brewpub,33.7419754,-117.823173,,
776,TAPS Brewery and Barrel Room,planning,33.7458511,-117.826166,,
777,Rocland Beverage Co,contract,39.126287,-123.199573,Mendocino,CA
778,Ukiah Brewing Co,brewpub,39.1494585102041,-123.207638326531,Mendocino,CA
779,Karl Strauss Brewing Co - Universal CityWalk,brewpub,34.1322144,-118.3529336,,
780,Rescue Brewing Co,micro,34.0958210564326,-117.648520315882,,
781,Brewery In Planning - Vacaville,planning,38.3565773,-121.9877444,Solano,CA
782,Wolf Creek Brewery,micro,34.4555624289373,-118.580786794735,,
783,Napa Smith Brewery,micro,38.132142,-122.259292,,
784,Mare Island Brewing Co.,brewpub,38.0998706,-122.2631011,,
785,Anheuser-Busch Inc - Los Angeles,large,34.2213918,-118.4721072,Los Angeles,CA
786,"MacLeod Ale Brewing Company, LLC",micro,34.1817375959596,-118.454048818182,Los Angeles,CA
787,House Beer,proprietor,33.9963199183673,-118.477531857143,Los Angeles,CA
788,Venice Ale House Brewing Co,contract,33.994634,-118.480274,Los Angeles,CA
789,Venice Duck Brewery,contract,33.995044,-118.4668875,Los Angeles,CA
790,Topa Topa Brewing Co,micro,34.2781592040816,-119.299444632653,Ventura,CA
791,Anacapa Brewing Co,brewpub,34.2807334693878,-119.293587428571,Ventura,CA
792,Brewery in Planning - Ventura,planning,34.343649,-119.295171010504,Ventura,CA
793,Leashless Brewing,micro,34.2783583966805,-119.290873458709,,
794,Madewest Brewing Company,micro,34.2618160149034,-119.235440075954,Ventura,CA
795,Smoke Mountain Brewery,micro,34.3942095907318,-119.443877930774,,
796,Ventura Coast Brewing Company,micro,34.2798839375,-119.294558770833,,
797,Brewbakers Brewing Co,brewpub,36.3300786,-119.2906961,Tulare,CA
798,Barrel Harbor Brewing Co.,micro,33.14879,-117.221385,San Diego,CA
799,Battlemage Brewing Co,micro,33.140153,-117.227634,San Diego,CA
800,Bear Roots Brewing Company,micro,33.188251,-117.226238,San Diego,CA
801,Belching Beaver Brewery Tavern & Grill,brewpub,33.2021182,-117.241029,,
802,Booze Brothers Brewing Co.,brewpub,33.148212,-117.218025,San Diego,CA
803,Indian Joe Brewing,micro,33.1694168,-117.2204292,San Diego,CA
804,Latitude 33 Brewing Co,micro,33.136105,-117.22485,San Diego,CA
805,Prohibition Brewing,brewpub,33.230457,-117.226841,San Diego,CA
806,Toolbox Brewing Company,micro,33.1359933445993,-117.223973334188,,
807,Wavelength Brewing Company,micro,33.2028185,-117.2418841,San Diego,CA
808,Corralitos Brewing Co,micro,36.9239241,-121.7623105,Santa Cruz,CA
809,Mount Shasta Brewing Co,micro,41.4166213797254,-122.38662508476,,
810,BJs Restaurant & Brewery - West Covina,brewpub,34.0729895180052,-117.886798829661,,
811,Jackrabbit Brewing Co,micro,38.5719882,-121.54112,,
812,Bike Dog Brewing Co,micro,38.5660851,-121.5433734,Yolo,CA
813,Yolo Brewing Co,micro,38.56942885,-121.541958488954,Yolo,CA
814,Five Threads Brewing Company,micro,34.1529112,-118.801724,Los Angeles,CA
815,Sundowner Brewing Co.,micro,34.1448948428425,-118.796231032952,,
816,14 Cannons Brewing Company,micro,34.15334,-118.802397,,
817,Gyppo Ale Mill,micro,40.0237557,-123.9430832,Humboldt,CA
818,LA Bodega Brewing Co,planning,33.9748932,-118.0336975,Los Angeles,CA
819,Stadium Pizza - Murrieta,brewpub,33.5934457955804,-117.247952896829,Riverside,CA
820,Fireman's Brew,contract,34.1667962,-118.6057591,Los Angeles,CA
821,Paperback Brewing Company,planning,34.1683386,-118.6059197,Los Angeles,CA
822,Blue Note Brewing Company,micro,38.6780363330699,-121.771239583043,,
823,The Blue Poppy Brewery,planning,33.8901096,-117.8249705,Orange,CA
824,Sutter Buttes Brewing,brewpub,39.1372328602599,-121.614914694766,,
825,Brewcaipa Brewing Co.,micro,34.033958,-117.040302142354,,
826,Colorado Farm Brewery,micro,37.4002604814483,-105.985591761422,Alamosa,CO
827,San Luis Valley Brewing Co,brewpub,37.4681813,-105.8742898,Alamosa,CO
828,Square Peg Brewerks,micro,37.4681813,-105.8742898,Alamosa,CO
829,Spice Trade Brewing,brewpub,39.802334,-105.0841731,,
830,Denver Beer Co Olde Town Arvada,micro,39.801625,-105.0814554,Jefferson,CO
831,"Grand Lake Brewing Co, The",brewpub,39.799274122449,-105.082455959184,Jefferson,CO
832,New Image Brewing Co,brewpub,39.7993834693878,-105.082459510204,,
833,Aspen Brewing Company,micro,39.2215340164332,-106.859774744915,Pitkin,CO
834,Dry Dock Brewing Co- South Dock,micro,39.6529424,-104.7680096,,
835,Launch Pad Brewery,micro,39.6853036,-104.7911253,Arapahoe,CO
836,Peak To Peak Tap & Brew,brewpub,39.6750535,-104.8366181,,
837,Peak To Peak Tap & Brew,micro,39.7402157,-104.8505299,,
838,Pilothouse Brewing Company,micro,39.6399322244898,-104.791550755102,Arapahoe,CO
839,Dry Dock Brewing Co - North Dock,regional,39.758038,-104.772404,Adams,CO
840,Mad Jack's Mountain Brewery,micro,39.4065126885825,-105.477435203567,,
841,Bottom Shelf Brewery,brewpub,37.2251348,-107.5990683,La Plata,CO
842,City Star Brewing,micro,40.3050521371222,-105.080946465525,Larimer,CO
843,Upslope Brewing Company - Flatiron Park,micro,40.0203098,-105.2183136,,
844,Avery Brewing Co,regional,40.0625835,-105.204765186937,Boulder,CO
845,BJs Restaurant & Brewery - Boulder,brewpub,40.0291592,-105.258512,Boulder,CO
846,Black Cat Brewing,planning,40.0149856,-105.2705456,Boulder,CO
847,Boulder Beer Co,regional,40.026439,-105.2480158,,
848,Boulder Beer On Walnut,brewpub,40.0168555,-105.2804375,Boulder,CO
849,BRU Handbuilt Ales and Eats,brewpub,40.0141462,-105.2293345,Boulder,CO
850,FATE Brewing Company,brewpub,40.0149794,-105.2454818,,
851,Mountain Sun Pub and Brewery,brewpub,40.0190131,-105.2752277,Boulder,CO
852,Stein Brewing Company,micro,40.0238083,-105.2378323,Boulder,CO
853,The Post Brewing Co,brewpub,40.0184764897959,-105.278894204082,Boulder,CO
854,West Flanders Brewing Co,brewpub,40.0217453,-105.260866,Boulder,CO
855,Wild Woods Brewery,micro,40.0162153,-105.2258104,,
856,Breckenridge Brewery & Pub,large,39.4762039248617,-106.044566462636,Summit,CO
857,Big Choice Brewing Co,micro,39.9864294285714,-104.822433,Adams,CO
858,Floodstage Ale Works,brewpub,39.9845656365982,-104.822100851988,,
859,Wonderland Brewing Co.,micro,39.91349895,-105.056081872213,Broomfield,CO
860,Rails End Beer Company,micro,39.9084879,-105.075030240563,Broomfield,CO
861,Eddyline Brewing LLC,micro,38.84025,-106.131606,Chaffee,CO
862,Royal Gorge Brew Pub,brewpub,38.4401053943236,-105.241811269967,,
863,Carbondale Beer Works,brewpub,39.400607122449,-107.213490897959,Garfield,CO
864,105 West Brewing Co,micro,39.3826949498803,-104.866720584377,Douglas,CO
865,Rockyard Brewing Company,brewpub,39.4096188,-104.8723394,Douglas,CO
866,4B's Brewery,brewpub,38.900614,-107.925782,Delta,CO
867,Two22 Brew,micro,39.6342909310345,-104.760169827586,Arapahoe,CO
868,Dostal Alley Brewing Co,brewpub,39.8001431,-105.512426,,
869,Brass Brewing Company,micro,38.8326073,-104.818970612347,El Paso,CO
870,Peaks N Pines Brewing Company,micro,38.889659925238,-104.714604513467,,
871,Bristol Brewing Co,micro,38.8108617,-104.827401,El Paso,CO
872,Cerberus Brewing Company,brewpub,38.8330574,-104.8374071,,
873,Cogstone Brewing Co,brewpub,38.8795959531559,-104.755660034485,El Paso,CO
874,Colorado Mountain Brewery,micro,38.9910371644874,-104.808398853641,El Paso,CO
875,Dueces Wild Brewery,micro,38.8877651,-104.7034318,El Paso,CO
876,FH Beerworks,micro,38.8260086,-104.8237318,,
877,Gold Camp Brewing Co,micro,38.8195724,-104.823552,El Paso,CO
878,Iron Bird Brewing Co.,brewpub,38.8280292,-104.8223799,El Paso,CO
879,Local Relic,brewpub,38.82871975,-104.820386564551,El Paso,CO
880,Lost Friend Brewing Company,micro,38.9082661039119,-104.782362642736,El Paso,CO
881,Phantom Canyon Brewing Co,brewpub,38.83423935,-104.824931398737,El Paso,CO
882,Rock Bottom Brewery - Colorado Springs,brewpub,38.8811909,-104.718194,El Paso,CO
883,Whistle Pig Brewing Company,micro,38.9237267524225,-104.793172305483,El Paso,CO
884,Main Street Brewery/Four Corners,brewpub,37.3484244,-108.5846644,Montezuma,CO
885,J. Fargo's Family Dining & Micro Brewery / Coyote J Brewing Co,brewpub,37.348775,-108.570199,Montezuma,CO
886,WildEdge Brewing Collective,brewpub,37.3499005750932,-108.585311695355,Montezuma,CO
887,Elk Avenue Brewing Company,brewpub,38.8698468478177,-106.986168851588,Gunnison,CO
888,Irwin Brewing Company,micro,38.8669557341938,-106.985301204786,Gunnison,CO
889,Three Barrel Brewing Co,brewpub,37.6790756,-106.3567109,Rio Grande,CO
890,Burgundian Brewing Co.,micro,39.7825168,-105.002409475111,,
891,Chain Reaction Brewing Company,micro,39.698793755102,-105.001629,Denver,CO
892,Ratio Beerworks,micro,39.7615104,-104.9812181,,
893,The Grateful Gnome Sandwich Shoppe and Brewery,brewpub,39.7764426,-105.0432655,Denver,CO
894,The Larimer Beer Company,contract,39.7677376780982,-104.909348665308,Denver,CO
895,10 Barrel Brewing Co - Denver,large,39.7592508,-104.9853655,,
896,14er Brewing Company,proprietor,39.7614112,-104.9839636,Denver,CO
897,Aero Craft Brewing,planning,39.7391428,-104.984696,Denver,CO
898,Banded Oak Brewing Company,brewpub,39.7282897,-104.9874187,,
899,Bierstadt Lagerhaus,brewpub,39.7630094,-104.9838084,Denver,CO
900,Black Beak Brewing,planning,39.7391428,-104.984696,,
901,Black Project Spontaneous & Wild Ales,micro,39.6933607,-104.9872018,Denver,CO
902,Black Shirt Brewing Co,brewpub,39.7698142,-104.9729604,,
903,Black Sky Brewery,brewpub,39.7239431,-104.9983183,,
904,Blue Moon Brewery,large,39.7735561,-104.9769417,Denver,CO
905,Bull & Bush Brewery,brewpub,39.7116689,-104.9488456,,
906,Call To Arms Brewing Company,micro,39.7788541,-105.0435373,,
907,Cerebral Brewing,micro,39.7396825306122,-104.945178326531,Denver,CO
908,Crazy Mountain Brewing Co,regional,39.7236117142857,-105.000292571429,Denver,CO
909,Declaration Brewing Company,micro,39.6797315510204,-104.991005612245,Denver,CO
910,Denver Beer Co,micro,39.7583143,-105.0072502,,
911,Denver Beer Co Canworks,micro,39.7769429,-105.0008302,Denver,CO
912,DeSteeg Brewing Co/Blind Faith Brewing,micro,39.7760619,-105.0438193,,
913,Diebolt Brewing,micro,39.770332,-105.0032079,Denver,CO
914,Dos Luces Brewery,contract,39.6830067,-104.9874923,,
915,"Epic Brewing Co., LLC",micro,39.7632294,-104.9813405,,
916,Factotum Brewhouse,micro,39.7702043,-105.0020653,,
917,Fermaentra,micro,39.6784277,-104.9428631,,
918,Goldspot Brewing Co,micro,39.7868924,-105.0343545,,
919,Good River Beer Company,contract,39.6842121795073,-104.98981685351,Denver,CO
920,Grandma's House,micro,39.7435056734694,-104.987273714286,,
921,Great Divide Brewing Co,regional,39.7539229,-104.9885279,Denver,CO
922,Hogshead Brewery,micro,39.758232,-105.04506,Denver,CO
923,J Moe's Brewing Company,brewpub,39.7800007,-104.9791943,Denver,CO
924,Jagged Mountain Brewery,micro,39.7522457,-104.9913673,Denver,CO
925,Lady Justice Brewing Company,micro,39.7909855,-105.0593393,Denver,CO
926,Little Machine,micro,39.7474051,-105.0243557,,
927,Long Table Brewing,micro,39.7581802448792,-104.928343,Denver,CO
928,Mockery Brewing,micro,39.7712389,-104.9797349,,
929,Novel Strand Brewing,micro,39.718471,-104.992318204082,Denver,CO
930,Odell Brewing Co - Denver,micro,39.7621447,-104.9810078,Denver,CO
931,Our Mutual Friend Brewing,micro,39.7605777,-104.9825596,,
932,Pints Pub Brewery and Freehouse,brewpub,39.737018,-104.9908538,,
933,Platt Park Brewing Co.,micro,39.6826741641985,-104.980596679125,Denver,CO
934,Prost Brewing,micro,39.761363,-105.0067758,,
935,Renegade Brewing Company,micro,39.7183139183674,-104.999263734694,Denver,CO
936,Renegade Brewing Company - Production,micro,39.7183139183674,-104.999263734694,Denver,CO
937,Seedstock Brewery,micro,39.7402520324939,-105.034851939335,Denver,CO
938,Sleeping Giant Brewing Company,micro,39.723797496944,-105.01677288236,Denver,CO
939,The Intrepid Sojourner Beer Project,micro,39.7291386,-104.9993865,Denver,CO
940,The Sandlot Brewery At Coors Field,large,39.7557183618995,-104.992648394272,Denver,CO
941,Thirsty Monk Pub Brewery,micro,39.743154,-104.9682507754,,
942,Vine Street Pub & Brewery,brewpub,39.7434087,-104.9627421,Denver,CO
943,Woods Boss Brewing Company,micro,39.7509153,-104.9845374,Denver,CO
944,Wynkoop Brewing Co,brewpub,39.7535446,-104.9984831,,
945,Zuni Street Brewing Company,micro,39.7585929,-105.015409,Denver,CO
946,Alternation Brewing Company,micro,39.6886637350385,-104.987611697826,,
947,Fiction Beer Company,micro,39.7402188,-104.8854207,,
948,Great Divide Brewing Co - RiNo Barrel Bar,micro,39.7703322,-104.979247,Denver,CO
949,Spangalang Brewery,micro,39.7552227,-104.9770361,Denver,CO
950,Station 26 Brewing Co,micro,39.7693533469388,-104.90626077551,Denver,CO
951,Dillon Dam Brewery,brewpub,39.62760465,-106.060312902355,,
952,Pug Ryan's Brewing Company,brewpub,39.6283267476565,-106.046759752977,,
953,Paradox Beer Co,micro,38.94440915,-105.155048625439,Teller,CO
954,Dolores River Brewery,brewpub,37.47323,-108.504562,Montezuma,CO
955,Animas Brewing Co,brewpub,37.2799721542463,-107.876991231164,La Plata,CO
956,Brew Pub and Kitchen,brewpub,37.2703646364737,-107.883154906291,La Plata,CO
957,Carver Brewing Co,brewpub,37.2748415,-107.8800415,,
958,Durango Brewing Co,brewpub,37.297647,-107.871981,La Plata,CO
959,Steamworks Brewing Co,brewpub,37.272176,-107.87979,La Plata,CO
960,Bonfire Brewing,micro,39.6553196561161,-106.828260010329,,
961,Joyride Brewing Co,micro,39.7531231,-105.053492,Jefferson,CO
962,Gore Range Brewery,brewpub,39.6436746055544,-106.595322816081,Eagle,CO
963,The Brew On Broadway (The BoB),micro,39.6541679183673,-104.987719959184,Arapahoe,CO
964,Atom Brewing Company,micro,40.0488359023256,-105.054232695768,Weld,CO
965,Echo Brewing Cask and Barrel,brewpub,40.05042825,-105.047767891486,Weld,CO
966,Industrial Revolution Brewing Company,micro,40.0516152857143,-105.047755571429,,
967,Estes Park Brewery,micro,40.3714876,-105.5261317,Larimer,CO
968,Lumpy Ridge Brewing Co,micro,40.367158,-105.503658,Larimer,CO
969,Rock Cut Brewing Company,micro,40.3723782473414,-105.523210505317,,
970,Lariat Lodge Brewing,brewpub,39.639351447261,-105.313692483851,Jefferson,CO
971,Barrel Dog Brewing,micro,39.6361637,-105.321457978674,Jefferson,CO
972,Florence Brewing Company,micro,38.3899222,-105.1177755,,
973,Jessup Farm Barrel House,micro,40.5620458,-105.0380013,Larimer,CO
974,New Belgium Brewing Co,regional,40.59335825,-105.067842181802,,
975,Odell Brewing Co,regional,40.5895239,-105.063332717858,,
976,Red Truck Beer Company Ltd.,micro,40.58916845,-105.058489475164,Larimer,CO
977,Anheuser-Busch Inc - Fort Collins,large,40.6181781101695,-105.001968629944,,
978,CooperSmiths Pub and Brewing,brewpub,40.5873784,-105.0755188,Larimer,CO
979,Equinox Brewing,micro,40.5863266,-105.0757134,Larimer,CO
980,McClellan's Brewing Company,brewpub,40.5737952040816,-105.11518055102,,
981,Three Four Beer Company,brewpub,40.5726176,-105.0959634,Larimer,CO
982,Maxline Brewing,micro,40.5505901157245,-105.079748938842,Larimer,CO
983,Pitchers Sports Restaurant and Brewery,brewpub,40.55306785,-105.097395899661,Larimer,CO
984,Echo Brewing Company,brewpub,40.111448,-104.944202,Weld,CO
985,Mountain Cowboy Brewing Company,brewpub,40.0985547346939,-104.93697955102,Weld,CO
986,HighSide Brewery,micro,39.5766332871669,-106.093541588347,Summit,CO
987,Outer Range Brewing Co,micro,39.5892615,-106.0989298,,
988,Copper Club Brewing Co,micro,39.1591638,-108.731492100058,,
989,Suds Brothers Brewing Co #2,brewpub,39.1591622,-108.73268805,,
990,"Guanella Pass Brewing Company, LLC",micro,39.705772,-105.697303,,
991,Glenwood Canyon Brewing Co,brewpub,39.5476563,-107.323424,Garfield,CO
992,Barrels & Bottles Brewery,brewpub,39.7562107,-105.2202098,,
993,Mountain Toad Brewing,micro,39.75807905,-105.22425625,Jefferson,CO
994,Golden City Brewery,brewpub,39.7547116734694,-105.222781326531,Jefferson,CO
995,MillerCoors Brewing Co - Golden,large,39.759495,-105.219592,Jefferson,CO
996,New Terrain Brewing Company,micro,39.7778197470628,-105.185103571308,Jefferson,CO
997,Sherpa Brewery Pvt. Ltd.,contract,39.7443713,-105.19634236597,Jefferson,CO
998,Never Summer Brewing Co,micro,40.0855713002402,-105.941568596986,,
999,Edgewater Brewery,brewpub,39.055655877551,-108.557514387755,,
1000,Kannah Creek Brewing Co,brewpub,39.0851394656243,-108.552261452459,Mesa,CO
1001,Rockslide Brewing Co,brewpub,39.0670106,-108.565915328517,Mesa,CO
1002,"Rocky Mountain Taphouse, LLC",micro,40.387892,-104.7859342,Weld,CO
1003,Brix Taphouse and Brewery,brewpub,40.4249546122449,-104.691137122449,Weld,CO
1004,Crabtree Brewing,micro,40.3899004,-104.7875038,Weld,CO
1005,WeldWerks Brewing Co.,micro,40.3998251,-104.6911497,,
1006,High Alpine Brewing Company,brewpub,38.5446227755102,-106.927037673469,Gunnison,CO
1007,3 Freaks Brewing Co,micro,39.5659575,-104.9426656,Douglas,CO
1008,C.B. and Potts/Big Horn Brewery - Highlands Ranch,brewpub,39.5621167359539,-104.988724575332,Douglas,CO
1009,Tommyknocker Brewery & Pub,micro,39.7417505,-105.5176775,,
1010,Westbound & Down Brewing Company,brewpub,39.7419049,-105.5155002,Clear Creek,CO
1011,Veteran Brothers Brewing Company,brewpub,40.33713,-104.9061919,Weld,CO
1012,Grand Adventure Brewing Company,brewpub,40.0599844027544,-106.39256560329,Grand,CO
1013,Endo Brewing Company,micro,40.0144311,-105.1341065,Boulder,CO
1014,Odd13 Brewing Inc,micro,39.9983626,-105.0878839,Boulder,CO
1015,The Post Brewing Co,brewpub,39.99461105,-105.091316505787,,
1016,Uturn BBQ,brewpub,40.0035307,-105.101616301982,Boulder,CO
1017,Lake City Brewing Company,brewpub,38.0272948560266,-107.319133465444,Hinsdale,CO
1018,6 & 40 Brewery/Taproom,planning,39.6311085,-105.11005818223,Jefferson,CO
1019,Great Frontier Brewing Company,micro,39.6813614,-105.117721624754,Jefferson,CO
1020,WestFax Brewing Co.,micro,39.7415749,-105.0710839,Jefferson,CO
1021,Periodic Brewing LLC,brewpub,39.2496419048566,-106.291776692933,Lake,CO
1022,Acidulous Brewing Company,contract,39.5383949,-105.1059543,Jefferson,CO
1023,Saint Patrick's Brewing Company,micro,39.6125875,-105.024584,Arapahoe,CO
1024,Lone Tree Brewing Co,micro,39.5629869684277,-104.894207450861,,
1025,Bootstrap Brewing,micro,40.16140505,-105.106280819542,,
1026,Left Hand Brewing Company,regional,40.158688,-105.116840311558,,
1027,Pumphouse Brewery and Restaurant,brewpub,40.1687619,-105.1020999,Boulder,CO
1028,Wibby Brewing,micro,40.1623965,-105.100209775206,Boulder,CO
1029,Crystal Springs Brewing Co,micro,39.964883,-105.119781,Boulder,CO
1030,12Degree Brewing,brewpub,39.9782443,-105.1319826,Boulder,CO
1031,Redgarden Brewery,brewpub,39.9674475,-105.1138827,Boulder,CO
1032,Big Thompson Brewery,micro,40.4081124285714,-105.074668714286,Larimer,CO
1033,Buckhorn Brewers LLC,micro,40.4058904,-105.0925735,,
1034,Crow Hop Brewing Co. Ltd.,micro,40.3953648571429,-105.073514428571,,
1035,Loveland Aleworks,micro,40.395410122449,-105.076967204082,Larimer,CO
1036,Rock Bottom Brewery - Centerra Promenade,brewpub,40.418114,-104.990384978473,Larimer,CO
1037,Tilted Barrel Brew Pub,contract,40.4215801632653,-105.077316734694,Larimer,CO
1038,Verboten Brewing,micro,40.396586122449,-105.074967387755,Larimer,CO
1039,Oskar Blues Brewery - Lyons,brewpub,40.2245133216038,-105.267693405737,Boulder,CO
1040,Manitou Brewing Company,brewpub,38.8569869,-104.915741327052,El Paso,CO
1041,Colorado Boy Pizzeria,brewpub,38.4788787229881,-107.877365975036,,
1042,Horsefly Brewing Co,brewpub,38.48272365,-107.871305973622,Montrose,CO
1043,Two Rascals Brewing Co,micro,38.4788199,-107.8800003,Montrose,CO
1044,Bootstrap Brewing Co,micro,40.09681246875,-105.16915809375,Boulder,CO
1045,Periodic Brewing Northglenn,micro,39.8994022605306,-104.961949519177,,
1046,Ouray Brewery,brewpub,38.0229071,-107.6712878,,
1047,Ourayle House Brewery,micro,38.0240204079867,-107.671404818667,Ouray,CO
1048,Red Mountain Brewing,brewpub,38.020713,-107.671615,Ouray,CO
1049,Riff Raff Brewing,brewpub,37.268740056181,-107.008154647924,,
1050,Palisade Brewing Company,brewpub,39.11109565,-108.354255299589,Mesa,CO
1051,Paonia United Brewing Company,micro,38.8689945454444,-107.597696869091,Delta,CO
1052,Elevation Beer Company,micro,38.5180443402639,-106.065937703811,Chaffee,CO
1053,Walter Brewing Company,micro,38.2624164489796,-104.610367714286,,
1054,Pdub Brewing Co,brewpub,38.3164023,-104.7084175,Pueblo,CO
1055,Shamrock Brewing Company,brewpub,38.2696530204082,-104.607864428571,Pueblo,CO
1056,Colorado Boy Pub & Brewery,brewpub,38.152358,-107.757768545455,Ouray,CO
1057,Moonlight Pizza,brewpub,38.5350227142857,-105.993161571429,Chaffee,CO
1058,Angry James Brewing Co,micro,39.633068949504,-106.076463748612,Summit,CO
1059,The Bakers' Brewery,brewpub,39.6297619317425,-106.067200204168,,
1060,Golden Block Brewery,brewpub,37.8119443404304,-107.664230711091,San Juan,CO
1061,Avalanche Brewing Co,brewpub,37.8098898995374,-107.664790985118,San Juan,CO
1062,Butcherknife Brewing Company,micro,40.510887,-106.857763,,
1063,Mahogany Ridge Brewery & Grill,brewpub,40.4838923566791,-106.830688335469,,
1064,Mountain Tap Brewery,brewpub,40.4853039,-106.8355071,Routt,CO
1065,Smuggler's Brewpub,brewpub,37.9358017999979,-107.811427371429,,
1066,Beer By Design Brewery,contract,39.9285623,-104.9417886,,
1067,Mother Tucker Brewery,micro,39.914024759542,-104.958258053435,,
1068,Dodgeton Creek Brewing Co.,planning,37.169397,-104.5005411,Las Animas,CO
1069,C.B. and Potts/Big Horn Brewery - Westminster,brewpub,39.9137611541353,-105.004089874687,,
1070,Kokopelli Beer Company,brewpub,39.8590102032508,-105.06403858694,,
1071,Brewery Rickoli,micro,39.7757286,-105.0818046,Jefferson,CO
1072,Colorado Plus,brewpub,39.7693524,-105.0916384,,
1073,High Hops Brewery,micro,40.4799901,-104.9357557,Weld,CO
1074,Mash Lab Brewing,micro,40.4386997959184,-104.967793571429,,
1075,BierWerks,brewpub,38.9941414,-105.0519462,,
1076,Ute Pass Brewing Co,brewpub,38.9944899,-105.05133569001,Teller,CO
1077,Tumbleweed Brewing and Wine Company,brewpub,40.1246275918367,-102.723886530612,Yuma,CO
1078,Broken Symmetry Gastro Brewery,brewpub,41.3709733353379,-73.4142477614171,Fairfield,CT
1079,Thomas Hooker Brewing Co LLC,micro,41.8089235,-72.7115431,,
1080,Thimble Island Brewery,micro,41.2969578585427,-72.7720276806763,New Haven,CT
1081,Stony Creek Brewery,regional,41.27475355,-72.8133036551208,New Haven,CT
1082,Aspetuck Brew Lab,micro,41.1544649,-73.2357109,,
1083,Brewport Brewing Co,brewpub,41.170877,-73.1923862727273,Fairfield,CT
1084,Charter Oak Brewing Company LLC,contract,41.3961903023823,-73.4042171054818,Fairfield,CT
1085,Black Pond Brews,micro,41.8047008489267,-71.8839447345293,Windham,CT
1086,BADSONS Beer Co,micro,41.3513647,-73.1322771,New Haven,CT
1087,Olde Burnside Brewing Co.,micro,41.7850567012493,-72.6002223820893,,
1088,Armada Brewing,contract,41.2900430077911,-72.8739756331215,New Haven,CT
1089,Overshores Brewing Co,micro,41.2900430077911,-72.8739756331215,New Haven,CT
1090,Cold Creek Brewery,micro,41.9209531,-72.456028,Tolland,CT
1091,Powder Hollow Brewery,micro,41.9896523,-72.5778709,,
1092,Cambridge House Brew Pub - Granby,brewpub,41.9663141364589,-72.7925953940791,Hartford,CT
1093,Counterweight Brewing Company,micro,41.3932116686678,-72.9195534130741,,
1094,Hanging Hills Brewing Company,micro,41.7448124315195,-72.6701173267628,Hartford,CT
1095,Hog River Brewing Co,micro,41.7579985579,-72.7018274498041,Hartford,CT
1096,Stubborn Beauty Brewing,micro,41.5723325262957,-72.6599074160136,Middlesex,CT
1097,Kinsmen Brewing,micro,41.566794731666,-72.9027141039072,,
1098,Five Churches Brewing,brewpub,41.662994,-72.782706,Hartford,CT
1099,BruRm At Bar,brewpub,41.3061639,-72.9302577,New Haven,CT
1100,Iron Brewing Company,brewpub,41.0988878749382,-73.4173495360772,Fairfield,CT
1101,Epicure Brewing,micro,41.5252134090909,-72.0743747727273,New London,CT
1102,These Guys Brewing Company,brewpub,41.5248764584876,-72.0747435228004,,
1103,Lasting Brass Craft Brewing,micro,41.5801589,-73.0716733,New Haven,CT
1104,Cottrell Brewing Co,micro,41.370676,-71.834289,,
1105,The Crossings Restaurant and Brewpub,brewpub,41.9144568,-71.9081681,Windham,CT
1106,Nod Hill Brewery,micro,41.2731614754047,-73.4438849111635,,
1107,Fox Farm Brewery,micro,41.4837007101622,-72.2678850580078,,
1108,Connecticut Valley Brewing Company,micro,41.8487282897209,-72.5714790446604,Hartford,CT
1109,Witchdoctor Brewing Company,micro,41.6016981315789,-72.8814255526316,Hartford,CT
1110,Half Full Brewery,micro,41.039332258981,-73.5495913458561,Fairfield,CT
1111,Lock City Brewing,micro,41.0770565216944,-73.5195579400781,,
1112,Fairfield Craft Ales,micro,41.1756581581267,-73.147028319681,Fairfield,CT
1113,Two Roads Brewing Co,regional,41.184374,-73.151247,Fairfield,CT
1114,Broad Brook Brewing Company,micro,41.9620078477925,-72.6626646301082,Hartford,CT
1115,Cliffside Brewing,micro,41.4566458293791,-72.8236736045008,,
1116,Brass Works Brewing Company LLC,micro,41.5974763265155,-73.0575366209305,,
1117,Beaver Beer Co,contract,41.12587,-73.311685,Fairfield,CT
1118,Boondoggle Brewing,contract,41.6838886994306,-72.6645867664619,,
1119,Willimantic Brewing Co and Main Street Cafe,brewpub,41.7131866,-72.2171493809593,Windham,CT
1120,Shebeen Brewing Company,micro,41.575855,-73.000062,New Haven,CT
1121,New England Brewing Co,micro,41.3385894166302,-72.980464057841,New Haven,CT
1122,Woodbury Brewing Company,brewpub,41.5385323,-73.2070509,Litchfield,CT
1123,Dewey Beer Co.,brewpub,38.6961465,-75.07497503008,Sussex,DE
1124,16 Mile Brewing Co,micro,38.6788938,-75.3781643624989,Sussex,DE
1125,Pizza By Elizabeths,brewpub,39.7756024886891,-75.5956684811067,New Castle,DE
1126,Volunteer Brewing Company,micro,39.4494278585822,-75.7195916061529,New Castle,DE
1127,Mispillion River Brewing,micro,38.9307888466891,-75.450838711807,Kent,DE
1128,Dogfish Head Craft Brewery,regional,38.76691205,-75.3115820590213,Sussex,DE
1129,Iron Hill Brewery & Restaurant - Newark,brewpub,39.6834128,-75.7468068,New Castle,DE
1130,38Â°-75Â° Brewing,brewpub,38.7074994,-75.090191,,
1131,Dogfish Head Brewings & Eats,brewpub,38.7151767,-75.08731545,Sussex,DE
1132,Fins Big Oyster Brewery,brewpub,38.7074994,-75.090191,Sussex,DE
1133,Iron Hill Brewery & Restaurant - Rehoboth Beach,brewpub,38.7074994,-75.090191,,
1134,Blue Earl Brewing Company,micro,39.2809684444444,-75.6241805555556,Kent,DE
1135,Brick Works Brewing and Eats,brewpub,39.298259951947,-75.6008012376838,,
1136,Stitch House Brewery,brewpub,39.7438473029416,-75.5490871634984,New Castle,DE
1137,Dew Point Brewing,brewpub,39.8100606,-75.6729188,New Castle,DE
1138,Bardo Brewpub,micro,38.8716537346939,-77.0065830204082,,
1139,AdMerk Corp. Inc.,contract,38.89742205,-77.0094205,District of Columbia,DC
1140,Bluejacket,brewpub,38.8750965,-77.0006981,,
1141,District ChopHouse and Brewery,brewpub,38.8965132,-77.0216694,District of Columbia,DC
1142,Gordon Biersch Brewery Restaurant - Washington,brewpub,38.8971375,-77.0243479,,
1143,Hellbender Brewing Company,micro,38.9603005,-77.0053314,,
1144,Right Proper Brewing Company,micro,38.9267988,-76.9930707764239,District of Columbia,DC
1145,Right Proper Brewing Company,brewpub,38.9154119,-77.0213751,,
1146,The Public Option,brewpub,38.926148,-76.9817377,,
1147,Capitol City Brewing Co,contract,38.8979293,-77.0082686,,
1148,Gordon Biersch Brewery Restaurant - Navy  Yard,brewpub,38.8766834,-77.0052971,District of Columbia,DC
1149,Oyster City Brewing Company,micro,29.7259561983391,-84.9850438892128,Franklin,FL
1150,Ragtime Tavern Seafood and Grill,brewpub,30.3247964,-81.3964898,Duval,FL
1151,Funky Buddha Lounge & Brewery,large,26.3640441,-80.0805397,Palm Beach,FL
1152,Copperpoint Brewing Company,micro,26.5590774285714,-80.073376,Palm Beach,FL
1153,Motorworks Brewing,micro,27.4908762853266,-82.57129,,
1154,"3 Keys Brewing Company, LLC",brewpub,27.4964502551051,-82.5339350162344,,
1155,Darwin Brewing Co,micro,27.4843298838169,-82.5704045764443,Manatee,FL
1156,Good Liquid Brewing Company,micro,27.470805,-82.575274,Manatee,FL
1157,Naughty Monk Brewery L.L.C.,micro,27.4519957,-82.4324118,Manatee,FL
1158,Marker 48 Brewing LLC,micro,28.5396995,-82.4012824,Hernando,FL
1159,Florida Beer Co,regional,28.398461,-80.611259,Brevard,FL
1160,Big Storm Brewing,micro,26.5609342,-81.9557454,,
1161,Big Blue Brewing,brewpub,26.56445894862,-81.952426390216,,
1162,Cocoa Beach Brewing Co,brewpub,28.3213572,-80.6090792,Brevard,FL
1163,Dirty Oar Beer Company,micro,28.355795,-80.7473064,,
1164,Big Bear Brewing Co,brewpub,26.2992083,-80.2505088,Broward,FL
1165,Copp Brewery & Winery,micro,28.8947262591425,-82.5873807162491,Citrus,FL
1166,Nature Coast Brewing Company,micro,28.8991795698048,-82.5931783969222,Citrus,FL
1167,3 Sons Brewing Co.,proprietor,26.0480023822368,-80.1436102851501,Broward,FL
1168,Persimmon Hollow Brewing,micro,29.0272682190265,-81.3037205782236,,
1169,Saltwater Brewery,micro,26.4619509,-80.0913747,Palm Beach,FL
1170,Caledonia Brewing,micro,28.01394225,-82.7840735,,
1171,Cueni Brewing Co.,micro,28.0144036833562,-82.7892842320147,Pinellas,FL
1172,Dunedin Brewery & Public House,brewpub,28.0141823132337,-82.7878256086413,,
1173,Soggy Bottom Brewing Co.,micro,28.0152064022556,-82.7827198075155,,
1174,Woodwright Brewing Company,micro,28.0153997211397,-82.787809750721,Pinellas,FL
1175,Wolf Branch Brewing Co.,micro,28.8538698367347,-81.6855684693878,Lake,FL
1176,Cafe Karibo,brewpub,30.6716253000455,-81.4630029055046,,
1177,The Amelia Tavern,brewpub,30.6710604477391,-81.4623627230273,Nassau,FL
1178,Amelia Island Brewing Company,brewpub,30.6710604477391,-81.4623627230273,,
1179,Invasive Species Brewing,micro,26.1298369,-80.1418016,Broward,FL
1180,Tarpon River Brewing,micro,26.1146209161835,-80.1459556172394,,
1181,Fort Myers Brewing,micro,26.5611037,-81.7619411,Lee,FL
1182,Millennial Brewing Company,micro,26.6429182,-81.8643460982227,Lee,FL
1183,"Sailfish Brewing Company, llc",micro,27.4490385447657,-80.3243182812509,St. Lucie,FL
1184,Props Craft Brewery Taproom,micro,30.4241168932814,-86.6496223725262,Okaloosa,FL
1185,Alligator Brewing / Tall Paul's Brewhouse,micro,29.6502615,-82.3222523,,
1186,Cypress and Grove Brewing Company,micro,29.661257,-82.328751,Alachua,FL
1187,First Magnitude Brewing Company,micro,29.6398302153528,-82.3242990762445,Alachua,FL
1188,Swamp Head Brewery,micro,29.6142515,-82.3736302,Alachua,FL
1189,Hollywood Brewing Co,micro,26.0405657,-80.1658845,Broward,FL
1190,Department Coffee,contract,26.0261832406292,-80.1683619916553,,
1191,Islamorada Beer Company,micro,24.9552722,-80.5805987,Monroe,FL
1192,Engine 15 Brewing Company,brewpub,30.2882669,-81.3923194,Duval,FL
1193,Green Room Brewing,micro,30.2903347142857,-81.3923014285714,Duval,FL
1194,Southern Swells Brewing Company,micro,30.2882669,-81.3923194,,
1195,Zeta Brewing Company,brewpub,30.2903879591837,-81.3902910408163,Duval,FL
1196,River City Brewing Co,brewpub,30.3186263877551,-81.6611172653061,Duval,FL
1197,Aardwolf Brewing Company,micro,30.3108962,-81.6545197,Duval,FL
1198,Anheuser-Busch Inc â Jacksonville,large,30.4319552,-81.6481156,Duval,FL
1199,Bold City Brewery,micro,30.326002,-81.656519,,
1200,Intuition Ale Works,micro,30.3233619166667,-81.6449079166667,,
1201,Intuition Ale Works Production Facility,micro,30.3179953809524,-81.6970237142857,,
1202,Veterans United Craft Brewery,micro,30.2008038,-81.5570848,Duval,FL
1203,Wicked Barley Brewing Co.,brewpub,30.2208765,-81.5779846,Duval,FL
1204,Seven Bridges Grille and Brewery,brewpub,30.2612958196082,-81.5531219312785,Duval,FL
1205,Civil Society Brewing Co,micro,26.8896463576254,-80.1146257093665,Palm Beach,FL
1206,Inlet Brewing Co,proprietor,26.9600304760994,-80.1001138878267,Palm Beach,FL
1207,Bone Island Brewing,micro,24.5614170685523,-81.7965146398266,Monroe,FL
1208,Waterfront Brewery LLC,brewpub,24.561016,-81.801344,,
1209,First Flight Island Restaurant & Brewery,brewpub,24.557321,-81.805413,,
1210,Halpatter Brewing Company,micro,30.1905038833906,-82.6365459447881,,
1211,Mathews Brewing Company,micro,26.6136144,-80.0581924507341,,
1212,Swan Brewing,micro,28.0460088798496,-81.9574616696244,Polk,FL
1213,Craft Life Brewing,micro,28.1961455195403,-82.4647787316792,Pasco,FL
1214,In the Loop Brewing,micro,28.2053085760618,-82.4627979884398,Pasco,FL
1215,Great Chicago Fire Brewery and Tap Room,brewpub,28.8102395102041,-81.8767662040816,,
1216,Hourglass Brewing,micro,28.7036668145749,-81.3450528024429,Seminole,FL
1217,Crooked Rooster Brewery LLC.,micro,30.2707152,-82.1223325,,
1218,Mad Beach Brewing,micro,27.7865945,-82.7835534,Pinellas,FL
1219,Hell 'n Blazes Brewing Company,micro,28.0783524492751,-80.6045506735687,Brevard,FL
1220,Intracoastal Brewing Co.,micro,28.1206522,-80.7039168,Brevard,FL
1221,Abbey Brewing Co,contract,25.7890381,-80.1402943,Miami-Dade,FL
1222,Bousa Brewing Company,micro,25.8414586990821,-80.1894101699335,,
1223,Concrete Beach Brewery,micro,25.800254,-80.2009170923563,,
1224,J Wakefield Brewing,micro,25.7995437,-80.1975286711708,Miami-Dade,FL
1225,Lincoln's Beard Brewing Co.,micro,25.732096,-80.3143531,Miami-Dade,FL
1226,NightLife Brewing Co,micro,25.7800687040816,-80.2213134285714,Miami-Dade,FL
1227,Titanic Brewing Co,brewpub,25.719812,-80.271314,,
1228,Veza Sur Brewing Co,large,25.8008973265306,-80.1961487142857,,
1229,Wynwood Brewing Company,micro,25.8003759,-80.2044925,Miami-Dade,FL
1230,Brew Angels LLC,brewpub,30.621944,-87.038565,Santa Rosa,FL
1231,Riptide Brewing Company,micro,26.1508859591837,-81.7949267959184,,
1232,New Smyrna Beach Brewing Co,micro,29.02541495,-80.9223638359946,Volusia,FL
1233,Infinite Ale Works,micro,29.1244956,-82.1362315,Marion,FL
1234,Big Storm Brewing,micro,28.1919217801414,-82.6261876198197,Pasco,FL
1235,Legacy Caribbean Craft Brewery,micro,25.8950665,-80.2626834,Miami-Dade,FL
1236,Redlight Redlight Beer Parlour and Brewery,micro,28.567899,-81.3485175701754,,
1237,Half Barrel Beer Project,brewpub,28.4344107302959,-81.4660672217048,Orange,FL
1238,Ivanhoe Park Brewing Company,micro,28.5631918,-81.3718448,,
1239,Ocean Sun Brewing,micro,28.5243367,-81.3249533,Orange,FL
1240,"Orlando Brewing Partners, Inc.",micro,28.5269182574091,-81.3830449947888,,
1241,RockPit Brewing,micro,28.5110165711627,-81.3788259172192,,
1242,Ten 10 Brewing Co,brewpub,28.5639768888889,-81.3659204444445,Orange,FL
1243,Whisper Creek Farm: Kitchen and Brewery,brewpub,28.40168865,-81.4286180077757,Orange,FL
1244,Beachside Brew Pub,micro,29.326634,-81.057048,Volusia,FL
1245,Alcatraz Brewing,micro,29.6178119569148,-81.1928702816799,Flagler,FL
1246,De Bine Brewing Company,micro,28.07847685,-82.767616779504,Pinellas,FL
1247,Palm Harbor Brewery,brewpub,28.0770723673469,-82.7668852857143,Pinellas,FL
1248,Fishale Taphouse and Grill,brewpub,30.1823237,-85.7855375,Bay,FL
1249,Uncle Ernies Bayfront Grill & Brew House,contract,30.1698125,-85.702765,Bay,FL
1250,Gulf Coast Brewery LLC,micro,30.4179910292336,-87.2055227418521,,
1251,McGuire's Irish Pub and Brewery - Pensacola,brewpub,30.4180618,-87.2024655,,
1252,Perfect Plain Brewing Co.,micro,30.4132165,-87.214831,Escambia,FL
1253,Spahr Brewing Company,micro,30.4418437625899,-87.2566306330935,,
1254,Two Henrys Brewing Company,micro,28.0158875,-82.1366836,Hillsborough,FL
1255,Odd Breed Wild Ales,micro,26.2323404937182,-80.1247919998543,Broward,FL
1256,26 Degree Brewing Company,micro,26.2316338,-80.1224169,Broward,FL
1257,HopLife Brewing Company,micro,27.3298822995776,-80.4086500079585,St. Lucie,FL
1258,Side Door Brewing Company,micro,27.3057566440496,-80.3079342000429,St. Lucie,FL
1259,Leaven Brewing Co.,micro,27.8538137055448,-82.3141746682522,Hillsborough,FL
1260,Crooked Thumb Brewery,micro,27.9874212,-82.6986687,,
1261,troubled waters brewing co.,contract,27.9907332857143,-82.6939118571429,Pinellas,FL
1262,Bog Brewing Company,micro,29.8908994,-81.3267969,St. Johns,FL
1263,Dog Rose Brewing Company,micro,29.8894814642857,-81.3130666785714,St. Johns,FL
1264,Cycle Brewing Production and Warehouse,micro,27.766635437218,-82.6622215778581,Pinellas,FL
1265,"Dissent Craft Brewing Company, LLC",micro,27.8222578098218,-82.6699867630801,Pinellas,FL
1266,3 Daughters Brewing,micro,27.7689902244898,-82.6629721020408,Pinellas,FL
1267,Cage Brewing,micro,27.770292,-82.660409,Pinellas,FL
1268,Green Bench Brewing Co,micro,27.7717121,-82.65067185,,
1269,Overflow Brewing Company,micro,27.7719674285714,-82.644494,Pinellas,FL
1270,Pesky Pelican Brewpub,brewpub,27.7824819310345,-82.7374394827586,Pinellas,FL
1271,Pinellas Ale Works,micro,27.7701286326531,-82.6597328979592,,
1272,Right Around The Corner,micro,27.7709513673469,-82.6636939387755,,
1273,St. Pete Brewing Company,micro,27.77179015,-82.641020875248,,
1274,Urban Comfort Restaurant and Brewery,brewpub,27.771098,-82.668678,Pinellas,FL
1275,Inner Compass Brewing,micro,28.810888,-81.270294,,
1276,Sanford Brewing Company,brewpub,28.808877,-81.265044,Seminole,FL
1277,WopsHops Brewing Company,brewpub,28.8087552889962,-81.2648542202581,,
1278,Brew Life Brewing,micro,27.2700131176471,-82.4975180588235,Sarasota,FL
1279,JDub's Brewing Co.,micro,27.3487779832697,-82.5252582277781,,
1280,Sarasota Brewing Co,brewpub,27.2600789696686,-82.5163258989692,Sarasota,FL
1281,Calusa Brewing Company,micro,27.269363,-82.483799,,
1282,Pareidolia Brewing Co.,brewpub,27.810845559901,-80.4664565859044,,
1283,Inoculum Ale Works,micro,28.6060793,-82.551896,Hernando,FL
1284,Mastry's Brewing Co,micro,27.74434,-82.751357,Pinellas,FL
1285,Cycle Brewing,micro,27.7709069,-82.6409282,,
1286,Flying Boat Brewing Company,micro,27.7828457080974,-82.657199693093,,
1287,Proof Brewing Co,micro,30.4329351226509,-84.2911601134599,Leon,FL
1288,Ology Brewing Co,micro,30.456465167236,-84.2815823956569,Leon,FL
1289,"Angry Chair Brewing, LLC.",micro,28.005127,-82.459381,Hillsborough,FL
1290,Southern Brewing & Winemaking Brewery,brewpub,27.9495902,-82.4500207,Hillsborough,FL
1291,7venth Sun Tampa,micro,27.9495902,-82.4500207,Hillsborough,FL
1292,Brew Bus Brewing,brewpub,27.9826232,-82.4586495,,
1293,Cigar City Brewing Co,regional,27.959172,-82.509195,Hillsborough,FL
1294,Coppertail Brewing,micro,27.956553,-82.430498,,
1295,D. G. Yuengling and Son Inc,regional,28.0476797755102,-82.4260891836735,Hillsborough,FL
1296,Hidden Springs Ale Works,micro,27.9587823061224,-82.4600853673469,Hillsborough,FL
1297,Mr Dunderbaks Biergarten and Brewery / Dunderbrau Brewing,brewpub,28.0823729310345,-82.4138298965517,,
1298,Ulele Spring Brewery,brewpub,27.9599097,-82.4628190391185,Hillsborough,FL
1299,Zydeco Brew Werks,brewpub,27.9603437959184,-82.4378322857143,Hillsborough,FL
1300,Saint Somewhere Brewing Co,micro,28.1461555102041,-82.7533537346939,,
1301,Silverking Brewing Company,micro,28.1450902653061,-82.7532536938776,Pinellas,FL
1302,Two Frogs Brewing Company,micro,28.1463248181818,-82.7550308787879,,
1303,Escape Brewing Company,micro,28.1803657472859,-82.6528439122286,Pasco,FL
1304,Bullfrog Creek Brewing Company,micro,27.9229731,-82.2695872,,
1305,Three Bridges Brewing / Off the Wagon Brewery,brewpub,27.0497931,-82.3913649,Sarasota,FL
1306,American Icon Brewery,brewpub,27.6367436059729,-80.3955066999903,,
1307,Walking Tree Brewery,micro,27.6455742,-80.4185247525615,,
1308,Dixie Grill & Brewery,brewpub,26.667349,-80.055437,Palm Beach,FL
1309,West Palm Beach Brewery & Wine Vault,brewpub,26.7110654,-80.05314345,Palm Beach,FL
1310,Crooked Can Brewing Co,micro,28.5639024,-81.590376,Orange,FL
1311,Grove Roots Brewing,micro,28.0197724736842,-81.7304932631579,Polk,FL
1312,The Ravenous Pig / Cask & Larder,brewpub,28.5933111,-81.3558211,Orange,FL
1313,The Bear And Peacock,micro,28.5929429,-81.3566559,,
1314,Zephyrhills Brewing Company,proprietor,28.2344403872726,-82.1792178291844,Pasco,FL
1315,MillerCoors Brewing Co - Albany,large,31.5854934285396,-84.0820312571752,,
1316,Pretoria Fields Collective,micro,31.5785829366279,-84.1495930042213,Dougherty,GA
1317,Currahee Brewing Company,micro,34.0711104,-84.2967826,Fulton,GA
1318,Jekyll Brewing,micro,34.0816562,-84.2536638,,
1319,Southern Brewing Company,micro,33.9811401213053,-83.3500228701351,,
1320,Akademia Brewing Company,brewpub,33.9427028863025,-83.4715375370739,,
1321,Creature Comforts Brewing Co.,regional,33.9591987142857,-83.380087,Clarke,GA
1322,Terrapin Beer Co,large,33.9885289006211,-83.3977928447205,Clarke,GA
1323,Max Lager's Wood Fired Grill & Brewery,brewpub,33.76333225,-84.3870607355802,,
1324,SweetWater Brewing Co,regional,33.80802235,-84.3810721937623,Fulton,GA
1325,Monday Night Brewing - Garage,micro,33.7290642941176,-84.4161772352941,Fulton,GA
1326,Eventide Brewing Co,micro,33.72670205,-84.3770629097993,Fulton,GA
1327,Monday Night Brewing,micro,33.79480405,-84.4098921239911,,
1328,Orpheus Brewing,micro,33.79314935,-84.3685805104894,Fulton,GA
1329,Park Tavern Brewery,brewpub,33.781867,-84.377744,Fulton,GA
1330,Red Brick Brewing Co / Atlanta Brewing Co,micro,33.81830375,-84.4345413838986,Fulton,GA
1331,Second Self Brewing,micro,33.8055922,-84.4300619376943,,
1332,Stats Brewpub,brewpub,33.7615549,-84.3964736,Fulton,GA
1333,The Wrecking Bar Brewpub,brewpub,33.762309,-84.3496422,Fulton,GA
1334,Torched Hop Brewing Company,brewpub,33.77232605,-84.3792977599729,,
1335,Gordon Biersch Brewery Restaurant - Atlanta,brewpub,33.8503143,-84.3620936,Fulton,GA
1336,Savannah River Brewing Company,micro,33.4653453607462,-81.9628808233695,Richmond,GA
1337,Fannin Brewing,micro,34.8714261335704,-84.3170747740377,,
1338,Grumpy Old Men Brewing,micro,34.8574713620201,-84.3305083215193,Fannin,GA
1339,Printer's Ale Manufacturing Co.,micro,33.6113894489796,-85.1024965714286,,
1340,Cherokee Brewing + Pizza Company,brewpub,34.7697666359591,-84.9694072096123,,
1341,BlueTarp Brewing Co,micro,33.7740425,-84.2835622,DeKalb,GA
1342,Three Taverns Craft Brewery,micro,33.7730551677064,-84.2848807842216,,
1343,Twain's Brewpub & Billiards,brewpub,33.77228,-84.294616,,
1344,Strawn Brewing Co,micro,33.5606219799361,-84.5836887307548,,
1345,Left Nut Brewing Co,micro,34.25442345,-83.8475963368642,Hall,GA
1346,Jailhouse Brewing Co,micro,33.387534,-84.282374,,
1347,Wild Leap Brewing Company,micro,33.037368,-85.0311916,Troup,GA
1348,Slow Pour Brewing Company,micro,33.9611674735289,-83.9888958076867,Gwinnett,GA
1349,Macon Beer Company,proprietor,32.828235,-83.630297,Bibb,GA
1350,Ocmulgee Brewpub,brewpub,32.8360763024772,-83.6293283305064,,
1351,Ironmonger Brewing,micro,33.919593821209,-84.4869635256505,Cobb,GA
1352,"Johnnie MacCracken's Celtic Firehouse Pub, Inc.",brewpub,33.9371282,-84.5417592,,
1353,Red Hare Brewing Company,micro,33.92440825,-84.4957563035449,,
1354,Abide Brewing Company,micro,33.4025703529412,-84.7635664117647,Coweta,GA
1355,Rome City Brewing Co,brewpub,34.2541039795918,-85.1726223061224,Floyd,GA
1356,Gate City Brewing Company,micro,34.0229342592006,-84.3639530669006,Fulton,GA
1357,Variant Brewing Company,micro,34.02576775,-84.35907858443,,
1358,Porter Pizza & Brewery,brewpub,33.9043481,-84.4304239,Fulton,GA
1359,5 Seasons Brewing Co - Prado,brewpub,33.9078086,-84.3796711,,
1360,Moon River Brewing Co,brewpub,32.0809857346939,-81.0917857755102,,
1361,Service Brewing Company,micro,32.0839717038974,-81.0982782978329,Chatham,GA
1362,Southbound Brewing Co,micro,32.087032,-81.111372,Chatham,GA
1363,Two Tides Brewing Company,micro,32.054127,-81.1021609166667,Chatham,GA
1364,Tucker Brewing Company,micro,33.8426920909091,-84.2075880909091,,
1365,Chattabrewchee Southern Brewhouse,micro,32.8762576310151,-85.1853615243903,Troup,GA
1366,Hawaii Nui Brewing,micro,19.7058759551431,-155.069788476413,Hawaii,HI
1367,Beer Lab HI,micro,21.2921440645306,-157.821878401556,Honolulu,HI
1368,Home of the Brave Brewing Company,brewpub,21.2987568898793,-157.853596637989,,
1369,Honolulu BeerWorks,brewpub,21.296906034391,-157.860634014391,,
1370,Stewbum,brewpub,21.3117151333333,-157.8634762,Honolulu,HI
1371,Waikiki Brewing Company,brewpub,21.2858755,-157.8334964,Honolulu,HI
1372,"Waikiki Brewing Company, Kaka'ako",micro,21.299644317727,-157.8559270982,Honolulu,HI
1373,Aloha Beer Co,brewpub,21.301249,-157.857248,Honolulu,HI
1374,Kona Brewing Co,regional,19.643069,-155.997661,Hawaii,HI
1375,Lanikai Brewing Co,micro,21.3904428646501,-157.740326634477,Honolulu,HI
1376,Maui Brewing Co - Production,regional,20.7496156609264,-156.4402410984,Maui,HI
1377,Kohola Brewery,micro,20.845329,-156.653963,Maui,HI
1378,"Maui Brewing Co, Brewpub",brewpub,20.845329,-156.653963,Maui,HI
